{"version": 0.6, "generator": "Overpass API 0.7.56.3 eb200aeb", "osm3s": {"timestamp_osm_base": "2020-07-17T08:27:02Z", "copyright": "The data included in this document is from www.openstreetmap.org. The data is made available under ODbL."}, "elements": [{"type": "node", "id": 569950704, "lat": 25.0332576, "lon": 121.5594331, "tags": {"addr:city": "\u81fa\u5317\u5e02", "addr:country": "TW", "addr:district": "\u4fe1\u7fa9\u5340", "addr:housenumber": "415\u4e4b3", "addr:postcode": "110", "addr:street": "\u4fe1\u7fa9\u8def\u56db\u6bb5", "amenity": "restaurant", "cuisine": "korean", "facebook": "https://www.facebook.com/HoneyPig.tw", "name": "Honey Pig", "opening_hours": "24/7", "phone": "+886 2 2725 5757", "website": "http://www.honeypig.com.tw"}}, {"type": "node", "id": 738612589, "lat": 25.0139452, "lon": 121.5426053, "tags": {"amenity": "restaurant", "name": "\u53f0\u79d1\u5927\u7b2c\u4e00\u5b78\u751f\u9910\u5ef3"}}, {"type": "node", "id": 743174782, "lat": 25.0188598, "lon": 121.530954, "tags": {"amenity": "restaurant", "name": "\u5e0c\u81d8\u4f50\u5df4", "name:en": "Greek Go", "name:zh": "\u5e0c\u81d8\u4f50\u5df4", "toilets:wheelchair": "no", "wheelchair": "no"}}, {"type": "node", "id": 924214891, "lat": 25.0128362, "lon": 121.5368211, "tags": {"addr:city": "\u81fa\u5317\u5e02", "addr:country": "TW", "addr:district": "\u5927\u5b89\u5340", "addr:floor": "2", "addr:full": "10673\u81fa\u5317\u5e02\u5927\u5b89\u5340\u7f85\u65af\u798f\u8def\u56db\u6bb585\u865f2\u6a13", "addr:housenumber": "85", "addr:postcode": "10673", "addr:street": "\u7f85\u65af\u798f\u8def\u56db\u6bb5", "amenity": "restaurant", "branch": "\u53f0\u5927\u4e8c\u6d3b\u5e97", "diet:vegetarian": "yes", "disused:name": "\u8304\u5b50\u6d0b\u5eda", "disused:name:en": "La Maison du Aubergine", "disused:name:zh": "\u8304\u5b50\u6d0b\u5eda", "level": "2", "name": "\u5c0f\u852c\u676d \u7d55\u5c0d\u852c\u98df", "opening_hours": "Mo-Su 11:30-21:30", "phone": "+886 2 2365 0333", "takeaway": "yes", "toilets:wheelchair": "no", "website": "http://www.aubergine-lm.com.tw/", "wheelchair": "yes"}}, {"type": "node", "id": 1081855284, "lat": 25.0403018, "lon": 121.5333202, "tags": {"amenity": "restaurant", "name": "\u6fdf\u5357\u8def\u6c34\u714e\u5305"}}, {"type": "node", "id": 1281234333, "lat": 25.0360516, "lon": 121.5471857, "tags": {"addr:city": "\u81fa\u5317\u5e02", "addr:country": "TW", "addr:district": "\u5927\u5b89\u5340", "addr:housenumber": "53", "addr:postcode": "106", "addr:street": "\u6771\u8c50\u8857", "amenity": "restaurant", "name": "Diary", "phone": "+886 2 2706-3553", "website": "http://www.facebook.com/pages/DIARY/222610990124"}}, {"type": "node", "id": 1686585411, "lat": 25.0073522, "lon": 121.5373951, "tags": {"addr:city": "\u53f0\u5317\u5e02", "addr:country": "TW", "addr:district": "\u6587\u5c71\u5340", "addr:housenumber": "87", "addr:postcode": "116", "addr:street": "\u6c40\u5dde\u8def\u56db\u6bb5", "amenity": "restaurant", "diet:vegetarian": "yes", "disused:amenity": "cafe", "disused:name": "\u6df1\u6797\u5e7b\u5883", "disused:name:en": "GALVLIH Cafe", "name": "\u8ae6\u7d14\u7d20\u4e3b\u7fa9\u7a7a\u9593", "wheelchair": "limited"}}, {"type": "node", "id": 1716390586, "lat": 25.0224415, "lon": 121.5267705, "tags": {"addr:city": "\u81fa\u5317\u5e02", "addr:country": "TW", "addr:district": "\u5927\u5b89\u5340", "addr:housenumber": "55", "addr:postcode": "106", "addr:street": "\u6d66\u57ce\u8857", "amenity": "restaurant", "name": "\u65e9\u5b89\u4f60\u597d", "toilets:wheelchair": "no", "wheelchair": "yes", "wheelchair:description": "\u8001\u95c6\u4eba\u5f88\u597d"}}, {"type": "node", "id": 1850962941, "lat": 25.0265112, "lon": 121.5322572, "tags": {"addr:city": "\u81fa\u5317\u5e02", "addr:country": "TW", "addr:district": "\u5927\u5b89\u5340", "addr:floor": "2", "addr:housenumber": "177", "addr:postcode": "106", "addr:street": "\u548c\u5e73\u6771\u8def\u4e00\u6bb5", "amenity": "restaurant", "description": "A very popular vegetarian restaurant. btw, it produces lots of cooking fumes to upper floors.", "diet:vegan": "yes", "diet:vegetarian": "only", "level": "2", "name": "\u6625\u5929\u7d20\u98df", "website": "http://www.springfood.com.tw/"}}, {"type": "node", "id": 1924425158, "lat": 25.038089, "lon": 121.5517045, "tags": {"amenity": "restaurant", "cuisine": "american", "name": "N.Y. Bagels Cafe", "wheelchair": "limited"}}, {"type": "node", "id": 1947348386, "lat": 25.0388606, "lon": 121.5516149, "tags": {"amenity": "restaurant", "cuisine": "chinese", "name": "\u570d\u7210", "source:amenity": "survey", "source:name": "survey"}}, {"type": "node", "id": 1947370956, "lat": 25.0383815, "lon": 121.5516986, "tags": {"amenity": "restaurant", "cuisine": "steak_house", "name": "\u96c5\u5ba4\u725b\u6392", "name:en": "Steak Inn", "name:zh": "\u96c5\u5ba4\u725b\u6392"}}, {"type": "node", "id": 1973476983, "lat": 25.0416035, "lon": 121.5326043, "tags": {"addr:city": "\u81fa\u5317\u5e02", "addr:country": "TW", "addr:district": "\u4e2d\u6b63\u5340", "addr:housenumber": "50\u4e4b1", "addr:postcode": "100", "addr:street": "\u65b0\u751f\u5357\u8def\u4e00\u6bb5", "amenity": "restaurant", "name": "\u72f8\u8c93\u9152\u98df\u5c4b"}}, {"type": "node", "id": 1973476984, "lat": 25.041827, "lon": 121.5316511, "tags": {"addr:city": "\u81fa\u5317\u5e02", "addr:country": "TW", "addr:district": "\u4e2d\u6b63\u5340", "addr:housenumber": "6", "addr:postcode": "100", "addr:street": "\u5fe0\u5b5d\u6771\u8def\u4e8c\u6bb5134\u5df7", "amenity": "restaurant", "name": "\u7c73\u862d\u610f\u5eda"}}, {"type": "node", "id": 1978019287, "lat": 25.0397304, "lon": 121.5554037, "tags": {"addr:city": "\u81fa\u5317\u5e02", "addr:country": "TW", "addr:district": "\u5927\u5b89\u5340", "addr:housenumber": "47", "addr:postcode": "106", "addr:street": "\u5149\u5fa9\u5357\u8def280\u5df7", "amenity": "restaurant", "cuisine": "chinese", "name": "Kiki Restaurant", "name:ko": "\ud0a4\ud0a4 \ub808\uc2a4\ud1a0\ub791"}}, {"type": "node", "id": 1978019318, "lat": 25.0397304, "lon": 121.5550027, "tags": {"amenity": "restaurant", "cuisine": "chinese", "name": "\u963f\u8ca1\u9b5a\u523a\u8089\u7fb9"}}, {"type": "node", "id": 1978030988, "lat": 25.0406769, "lon": 121.5550412, "tags": {"amenity": "restaurant", "cuisine": "chinese", "name": "\u9577\u767d\u5c0f\u9928"}}, {"type": "node", "id": 2013717673, "lat": 25.0413685, "lon": 121.5318129, "tags": {"addr:city": "\u81fa\u5317\u5e02", "addr:country": "TW", "addr:district": "\u4e2d\u6b63\u5340", "addr:housenumber": "11", "addr:postcode": "100", "addr:street": "\u65b0\u751f\u5357\u8def\u4e00\u6bb554\u5df7", "amenity": "restaurant", "cuisine": "shanghai", "name": "\u4e0a\u6d77\u4f86\u9109\u6751\u5c0f\u9928", "phone": "+886 2 23970919"}}, {"type": "node", "id": 2025959741, "lat": 25.0403175, "lon": 121.5320061, "tags": {"addr:city": "\u81fa\u5317\u5e02", "addr:country": "TW", "addr:district": "\u4e2d\u6b63\u5340", "addr:full": "\u53f0\u5317\u5e02\u6fdf\u5357\u8def\u4e8c\u6bb561\u865f\u4e4b1", "addr:housenumber": "61-1", "addr:postcode": "100", "addr:street": "\u6fdf\u5357\u8def\u4e8c\u6bb5", "amenity": "restaurant", "brand": "\u6eab\u5dde\u5927\u991b\u98e9", "name": "\u6eab\u5dde\u5927\u991b\u98e9", "phone": "+886 02-2357-7800"}}, {"type": "node", "id": 2025959763, "lat": 25.0369918, "lon": 121.5322694, "tags": {"addr:city": "\u81fa\u5317\u5e02", "addr:country": "TW", "addr:district": "\u4e2d\u6b63\u5340", "addr:full": "\u53f0\u5317\u5e02\u65b0\u751f\u5357\u8def\u4e00\u6bb5149\u865f", "addr:housenumber": "149", "addr:postcode": "100", "addr:street": "\u65b0\u751f\u5357\u8def\u4e00\u6bb5", "amenity": "restaurant", "name": "\u6b63\u5b97\u9999\u6e2f\u9d3b\u904b\u6e2f\u5f0f\u71d2\u81d8", "phone": "+886 02-2701-1143"}}, {"type": "node", "id": 2050889836, "lat": 25.0420123, "lon": 121.5555561, "tags": {"addr:city": "\u81fa\u5317\u5e02", "addr:country": "TW", "addr:district": "\u5927\u5b89\u5340", "addr:full": "\u81fa\u5317\u5e02\u5927\u5b89\u5340\u5ef6\u5409\u8857137\u5df729\u865f", "addr:housenumber": "29", "addr:postcode": "106", "addr:street": "\u5ef6\u5409\u8857", "amenity": "restaurant", "cuisine": "japanese", "name": "\u7bc9\u5730\u9bae\u9b5a\u65e5\u5f0f\u6599\u7406", "phone": "+886 2 2721 8915"}}, {"type": "node", "id": 2056021919, "lat": 25.0359286, "lon": 121.5460861, "tags": {"addr:city": "\u81fa\u5317\u5e02", "addr:country": "TW", "addr:district": "\u5927\u5b89\u5340", "addr:housenumber": "34", "addr:postcode": "106", "addr:street": "\u6771\u8c50\u8857", "amenity": "restaurant", "name": "\u5317\u5e73\u534a\u755d\u5712"}}, {"type": "node", "id": 2056021920, "lat": 25.036086, "lon": 121.5466944, "tags": {"addr:city": "\u81fa\u5317\u5e02", "addr:country": "TW", "addr:district": "\u5927\u5b89\u5340", "addr:housenumber": "41", "addr:postcode": "106", "addr:street": "\u6771\u8c50\u8857", "amenity": "restaurant", "cuisine": "japanese", "name": "\u6f6e\u8089\u58fd\u559c\u71d2\u6771\u8c50\u672c\u5e97", "wheelchair": "yes", "wheelchair:description": "\u6709\u4e00\u5c0f\u500b\u81fa\u968e\uff0c\u5e97\u5bb6\u8a2d\u7f6e\u5c0f\u7de9\u5761\uff0c\u7528\u9910\u7a7a\u9593\u5927\uff0c\u6905\u5b50\u53ef\u79fb\u52d5\u3002"}}, {"type": "node", "id": 2056149423, "lat": 25.0426833, "lon": 121.5554482, "tags": {"addr:city": "\u81fa\u5317\u5e02", "addr:country": "TW", "addr:district": "\u5927\u5b89\u5340", "addr:housenumber": "26", "addr:postcode": "106", "addr:street": "\u5ef6\u5409\u8857131\u5df7", "amenity": "restaurant", "branch": "\u5fe0\u5b5d\u4e09\u5e97", "cuisine": "japanese", "name": "\u6f6e\u8089\u58fd\u559c\u71d2", "opening_hours": "12:00-15:00, 17:00-23:00; Sa-Su 12:00-23:00; PH 12:00-23:00"}}, {"type": "node", "id": 2079695474, "lat": 25.0442614, "lon": 121.5298548}, {"type": "node", "id": 2079695475, "lat": 25.044438, "lon": 121.5297899}, {"type": "node", "id": 2079695476, "lat": 25.0445026, "lon": 121.5300041}, {"type": "node", "id": 2079695477, "lat": 25.044365, "lon": 121.5299403}, {"type": "node", "id": 2079695478, "lat": 25.0443961, "lon": 121.5300433}, {"type": "node", "id": 2079695479, "lat": 25.044295, "lon": 121.5299661}, {"type": "node", "id": 2079699833, "lat": 25.0447135, "lon": 121.5291413, "tags": {"amenity": "restaurant", "cuisine": "italian", "name": "\u7fa9\u9eb5\u574a"}}, {"type": "node", "id": 2084825231, "lat": 25.0445674, "lon": 121.5295668, "tags": {"amenity": "restaurant", "name": "Deja Vu"}}, {"type": "node", "id": 2084825233, "lat": 25.0442155, "lon": 121.5289953, "tags": {"amenity": "restaurant", "name": "\u5225\u5883\u58fd\u53f8"}}, {"type": "node", "id": 2084949056, "lat": 25.0309549, "lon": 121.5547776, "tags": {"addr:city": "\u81fa\u5317\u5e02", "addr:country": "TW", "addr:district": "\u5927\u5b89\u5340", "addr:housenumber": "7", "addr:postcode": "106", "addr:street": "\u901a\u5316\u885739\u5df7", "amenity": "restaurant", "cuisine": "regional", "name": "\u901a\u5316\u8089\u5712", "opening_hours": "Mo-Su 10:00-22:00", "phone": "+886 2 2707 8562", "website": "http://www.meatball.com.tw"}}, {"type": "node", "id": 2089915610, "lat": 25.0430078, "lon": 121.5431079, "tags": {"amenity": "restaurant", "cuisine": "japanese", "name": "\u571f\u4e09\u5bd2\u516d\u8b9a\u6b67\u70cf\u9f8d\u9eb5"}}, {"type": "node", "id": 2094931371, "lat": 25.034118, "lon": 121.526528, "tags": {"amenity": "restaurant", "brand": "\u77f3\u4e8c\u934b", "cuisine": "chinese", "name": "\u77f3\u4e8c\u934b", "source": "Bing, Survey"}}, {"type": "node", "id": 2122373363, "lat": 25.0253313, "lon": 121.5282767}, {"type": "node", "id": 2122373364, "lat": 25.0253399, "lon": 121.5281504}, {"type": "node", "id": 2122373366, "lat": 25.0253505, "lon": 121.5281502}, {"type": "node", "id": 2122373368, "lat": 25.0253562, "lon": 121.528078}, {"type": "node", "id": 2122373373, "lat": 25.0254816, "lon": 121.5282875}, {"type": "node", "id": 2122373374, "lat": 25.0254967, "lon": 121.5280909}, {"type": "node", "id": 2142308465, "lat": 25.044148, "lon": 121.5362535, "tags": {"addr:housenumber": "38", "addr:street": "\u5efa\u570b\u5357\u8def\u4e00\u6bb5", "amenity": "restaurant", "disused:name": "\u5496\u55b1", "name": "\u70b8\u91ac\u9eb5\u5927\u738b"}}, {"type": "node", "id": 2166594039, "lat": 25.0350269, "lon": 121.556189, "tags": {"addr:city": "\u53f0\u5317\u5e02", "addr:country": "TW", "addr:district": "\u5927\u5b89\u5340", "addr:housenumber": "249", "addr:postcode": "106", "addr:street": "\u5ef6\u5409\u8857", "amenity": "restaurant", "name": "\u5927\u9f0e\u8c6c\u8840\u6e6f", "name:en": "Dading Pig Blood Soup", "name:zh": "\u5927\u9f0e\u8c6c\u8840\u6e6f", "phone": "+886 2 2706-3088"}}, {"type": "node", "id": 2178510631, "lat": 25.0319506, "lon": 121.5593103, "tags": {"addr:city": "\u53f0\u5317\u5e02", "addr:country": "TW", "addr:district": "\u4fe1\u7fa9\u5340", "addr:full": "\u53f0\u5317\u5e02\u4fe1\u7fa9\u5340\u5433\u8208\u88577\u5df71\u865f", "addr:housenumber": "1", "addr:postcode": "110", "addr:street": "\u5433\u8208\u88577\u5df7", "amenity": "restaurant", "name": "\u5468\u8463\u71d2\u8089\u98ef", "opening_hours": "Mo-Su 9:00-20:00", "phone": "+886 2 87890678"}}, {"type": "node", "id": 2178510646, "lat": 25.0260113, "lon": 121.5547184, "tags": {"addr:city": "\u53f0\u5317\u5e02", "addr:country": "TW", "addr:district": "\u4fe1\u7fa9\u5340", "addr:full": "\u53f0\u5317\u5e02\u57fa\u9686\u8def\u4e8c\u6bb5247\u865f", "addr:housenumber": "247", "addr:postcode": "110", "addr:street": "\u57fa\u9686\u8def\u4e8c\u6bb5", "amenity": "restaurant", "name": "\u91d1\u947d\u6599\u7406\u76d2\u9910\u7e3d\u5e97"}}, {"type": "node", "id": 2178660018, "lat": 25.0416408, "lon": 121.5317532, "tags": {"addr:city": "\u81fa\u5317\u5e02", "addr:country": "TW", "addr:district": "\u4e2d\u6b63\u5340", "addr:housenumber": "1", "addr:postcode": "100", "addr:street": "\u5fe0\u5b5d\u6771\u8def\u4e8c\u6bb5134\u5df7", "amenity": "restaurant", "name": "Basil"}}, {"type": "node", "id": 2180238473, "lat": 25.0168608, "lon": 121.5329303, "tags": {"addr:city": "\u53f0\u5317\u5e02", "addr:country": "TW", "addr:district": "\u5927\u5b89\u5340", "addr:floor": "1", "addr:full": "\u53f0\u5317\u5e02\u5927\u5b89\u5340\u65b0\u751f\u5357\u8def3\u6bb5102\u865f1\u6a13", "addr:housenumber": "102", "addr:postcode": "106", "addr:street": "\u65b0\u751f\u5357\u8def\u4e09\u6bb5", "amenity": "restaurant", "disused:name": "\u842c\u91cc\u8907\u5370\u5e97", "disused:shop": "copyshop", "level": "1", "name": "\u6bd4\u85a9\u5e6b", "name:en": "Pizza Guild", "name:zh": "\u6bd4\u85a9\u5e6b", "source": "survey"}}, {"type": "node", "id": 2183209941, "lat": 25.033687, "lon": 121.5388776, "tags": {"amenity": "restaurant", "disused:amenity": "fast_food", "disused:name": "\u80af\u5fb7\u57fa", "name": "\u5b9a\u98df\u516b", "toilets:wheelchair": "no", "wheelchair": "yes"}}, {"type": "node", "id": 2183238686, "lat": 25.0333544, "lon": 121.5321932, "tags": {"amenity": "restaurant", "disused:name": "\u677e\u9752\u8d85\u5e02", "disused:shop": "supermarket", "name": "NOUVEAU"}}, {"type": "node", "id": 2188231676, "lat": 25.0235292, "lon": 121.5432095, "tags": {"addr:city": "\u81fa\u5317\u5e02", "addr:country": "TW", "addr:district": "\u5927\u5b89\u5340", "addr:housenumber": "314", "addr:postcode": "106", "addr:street": "\u5fa9\u8208\u5357\u8def\u4e8c\u6bb5", "amenity": "restaurant", "diet:vegan": "yes", "diet:vegetarian": "only", "name": "\u5168\u570b\u7d20\u98df", "phone": "+886 2 2736 1168", "toilets:wheelchair": "no", "wheelchair": "limited"}}, {"type": "node", "id": 2193828907, "lat": 25.0236976, "lon": 121.5252449, "tags": {"amenity": "restaurant", "name": "\u53e4\u62c9\u7235", "toilets:wheelchair": "no", "wheelchair": "no"}}, {"type": "node", "id": 2218962060, "lat": 25.0241394, "lon": 121.5557435, "tags": {"amenity": "restaurant", "name": "\u516d\u5f35\u7281\u9945\u982d\u5e97"}}, {"type": "node", "id": 2218962067, "lat": 25.0239158, "lon": 121.5558508, "tags": {"amenity": "restaurant", "name": "\u5d07\u5fb7\u98ef\u5305"}}, {"type": "node", "id": 2230015811, "lat": 25.0160504, "lon": 121.5320875, "tags": {"addr:city": "\u81fa\u5317\u5e02", "addr:country": "TW", "addr:district": "\u4e2d\u6b63\u5340", "addr:housenumber": "4", "addr:postcode": "100", "addr:street": "\u7f85\u65af\u798f\u8def\u4e09\u6bb5286\u5df74\u5f04", "amenity": "restaurant", "name": "\u53f0\u5927\u725b\u838a", "phone": "+886-2-2367-7325", "toilets:wheelchair": "no", "wheelchair": "limited"}}, {"type": "node", "id": 2230023838, "lat": 25.0164825, "lon": 121.5321088, "tags": {"addr:city": "\u81fa\u5317\u5e02", "addr:country": "TW", "addr:district": "\u4e2d\u6b63\u5340", "addr:housenumber": "282", "addr:postcode": "100", "addr:street": "\u7f85\u65af\u798f\u8def\u4e09\u6bb5", "amenity": "restaurant", "cuisine": "italian", "disused:name": "\u767c\u73fe\u7fa9\u5927\u5229\u9eb5", "name": "\u9eb5\u5de5\u574a\u7fa9\u5927\u5229\u9eb5", "toilets:wheelchair": "no", "wheelchair": "no"}}, {"type": "node", "id": 2230023845, "lat": 25.0188171, "lon": 121.5332464, "tags": {"addr:city": "\u81fa\u5317\u5e02", "addr:country": "TW", "addr:district": "\u5927\u5b89\u5340", "addr:housenumber": "6", "addr:postcode": "106", "addr:street": "\u65b0\u751f\u5357\u8def\u4e09\u6bb586\u5df7", "amenity": "restaurant", "cuisine": "italian", "disused:name": "\u767c\u73fe\u7fa9\u5927\u5229\u9eb5", "name": "\u5409\u8389\u611b\u98df\u5802", "toilets:wheelchair": "no", "wheelchair": "no"}}, {"type": "node", "id": 2278521194, "lat": 25.0245993, "lon": 121.5286816, "tags": {"amenity": "restaurant", "cuisine": "regional", "cuisine:zh": "\u6ef7\u5473", "name": "\u71c8\u7c60\u6ef7\u5473", "toilets:wheelchair": "no", "wheelchair": "yes"}}, {"type": "node", "id": 2310591239, "lat": 25.0331513, "lon": 121.5269104, "tags": {"amenity": "restaurant", "brand": "\u9b0d\u9b1a\u5f35\u9b6f\u8089\u98ef", "cuisine": "chinese", "name": "\u9b0d\u9b1a\u5f35\u9b6f\u8089\u98ef"}}, {"type": "node", "id": 2311690628, "lat": 25.0237422, "lon": 121.5314764, "tags": {"amenity": "restaurant", "name": "\u7cca\u5857\u9eb5", "toilets:wheelchair": "no", "wheelchair": "limited"}}, {"type": "node", "id": 2318382782, "lat": 25.0265962, "lon": 121.5230316, "tags": {"addr:city": "\u53f0\u5317\u5e02", "addr:country": "TW", "addr:district": "\u5927\u5b89\u5340", "addr:floor": "1", "addr:housenumber": "75", "addr:postcode": "106", "addr:street": "\u7f85\u65af\u798f\u8def\u4e8c\u6bb5", "amenity": "restaurant", "branch": "\u53e4\u4ead\u5e97", "brand": "\u722d\u9bae\u8ff4\u8f49\u58fd\u53f8", "cuisine": "sushi", "level": "1", "name": "\u722d\u9bae\u8ff4\u8f49\u58fd\u53f8", "toilets:wheelchair": "no", "wheelchair": "no"}}, {"type": "node", "id": 2321487374, "lat": 25.0215803, "lon": 121.5566811, "tags": {"addr:city": "\u53f0\u5317\u5e02", "addr:country": "TW", "addr:district": "\u4fe1\u7fa9\u5340", "addr:full": "\u53f0\u5317\u5e02\u5bcc\u967d\u8857134\u865f1\u6a13", "addr:housenumber": "134", "addr:postcode": "110", "addr:street": "\u5bcc\u967d\u8857", "amenity": "restaurant", "name": "\u7396\u5b9a\u98df", "phone": "+886-2-27392566"}}, {"type": "node", "id": 2340183172, "lat": 25.0180399, "lon": 121.5402777, "tags": {"amenity": "restaurant", "diet:vegan": "yes", "diet:vegetarian": "only", "name": "\u98df\u9999\u5712"}}, {"type": "node", "id": 2341947590, "lat": 25.0182095, "lon": 121.531659, "tags": {"addr:city": "\u81fa\u5317\u5e02", "addr:country": "TW", "addr:district": "\u5927\u5b89\u5340", "addr:full": "106\u53f0\u5317\u5e02\u5927\u5b89\u5340\u7f85\u65af\u798f\u8def\u4e09\u6bb5283\u5df78\u865f", "addr:housenumber": "8", "addr:postcode": "106", "addr:street": "\u7f85\u65af\u798f\u8def\u4e09\u6bb5283\u5df7", "amenity": "restaurant", "cuisine": "japanese", "name": "\u6eff\u8179\u98df\u5802", "phone": "+886-2-2363-8006", "toilets:wheelchair": "no", "wheelchair": "yes"}}, {"type": "node", "id": 2341947845, "lat": 25.0171742, "lon": 121.5325554, "tags": {"addr:city": "\u81fa\u5317\u5e02", "addr:country": "TW", "addr:district": "\u5927\u5b89\u5340", "addr:housenumber": "6", "addr:postcode": "106", "addr:street": "\u7f85\u65af\u798f\u8def\u4e09\u6bb5333\u5df7", "amenity": "restaurant", "cuisine": "chinese", "name": "\u5c0f\u98ef\u5ef3", "toilets:wheelchair": "no", "wheelchair": "no"}}, {"type": "node", "id": 2347622909, "lat": 25.0422103, "lon": 121.5434908, "tags": {"amenity": "restaurant", "cuisine": "steak_house", "name": "\u897f\u5824\u725b\u6392"}}, {"type": "node", "id": 2354926113, "lat": 25.0304724, "lon": 121.5577478, "tags": {"amenity": "restaurant", "cuisine": "steak_house", "disused:name": "\u897f\u5824\u725b\u6392", "name": "Maple Tree Hous3"}}, {"type": "node", "id": 2365905406, "lat": 25.0404753, "lon": 121.5499221, "tags": {"addr:city": "\u53f0\u5317\u5e02", "addr:country": "TW", "addr:district": "\u5927\u5b89\u5340", "addr:full": "106\u53f0\u5317\u5e02\u5927\u5b89\u5340\u6566\u5316\u5357\u8def\u4e00\u6bb5233\u5df711\u865f", "addr:housenumber": "11", "addr:postcode": "106", "addr:street": "\u6566\u5316\u5357\u8def\u4e00\u6bb5233\u5df7", "amenity": "restaurant", "cuisine": "cantonese", "name": "1976", "name:zh": "\u58f9\u7396\u67d2\u9678", "phone": "+886 2 2777 1976", "start_date": "1976"}}, {"type": "node", "id": 2376924761, "lat": 25.0430507, "lon": 121.5557667, "tags": {"amenity": "restaurant", "name": "\u8336\u5473\u5148"}}, {"type": "node", "id": 2376924767, "lat": 25.0435128, "lon": 121.561618, "tags": {"amenity": "restaurant", "name": "\u5c0f\u5c71\u5802"}}, {"type": "node", "id": 2383325490, "lat": 25.0228589, "lon": 121.52533, "tags": {"addr:city": "\u81fa\u5317\u5e02", "addr:country": "TW", "addr:district": "\u4e2d\u6b63\u5340", "addr:housenumber": "40", "addr:postcode": "100", "addr:street": "\u7f85\u65af\u798f\u8def\u4e09\u6bb5", "amenity": "restaurant", "name": "\u97d3\u77f3\u934b", "toilets:wheelchair": "no", "wheelchair": "limited"}}, {"type": "node", "id": 2383980615, "lat": 25.0230594, "lon": 121.5281197, "tags": {"addr:city": "\u53f0\u5317\u5e02", "addr:country": "TW", "addr:district": "\u5927\u5b89\u5340", "addr:floor": "1", "addr:full": "\u53f0\u5317\u5e02\u5927\u5b89\u5340\u5e2b\u5927\u8def86\u5df71\u865f1\u6a13", "addr:housenumber": "1", "addr:postcode": "106", "addr:street": "\u5e2b\u5927\u8def86\u5df7", "amenity": "restaurant", "cuisine": "waffle", "disused:amenity": "restaurant", "disused:cuisine": "burger", "disused:name": "Evan's Burger", "level": "1", "name": "\u5c0f\u6728\u5c4b\u9b06\u9905\u81fa\u5e2b\u5927\u5e97", "outdoor_seating": "no", "takeaway": "yes", "toilets:wheelchair": "no", "wheelchair": "yes"}}, {"type": "node", "id": 2383980620, "lat": 25.0224821, "lon": 121.5282263, "tags": {"addr:city": "\u53f0\u5317\u5e02", "addr:country": "TW", "addr:district": "\u5927\u5b89\u5340", "addr:full": "106\u53f0\u5317\u5e02\u5927\u5b89\u5340\u5e2b\u5927\u8def92\u5df76\u865f", "addr:housenumber": "6", "addr:postcode": "106", "addr:street": "\u5e2b\u5927\u8def92\u5df7", "air_conditioning": "yes", "amenity": "restaurant", "branch": "\u5e2b\u5927\u5e97", "cuisine": "chinese", "disused:amenity": "fast_food", "disused:name": "\u6f22\u5821\u738b", "disused:name:en": "Burger King", "disused:name:zh": "\u6f22\u5821\u738b", "name": "\u82b1\u795e\u5496\u5561\u79c1\u5eda", "name:en": "de Flora Restaurant & Caf\u00e9", "name:nan": "Hue-s\u00een-ka-pi-su-t\u00fb", "name:zh": "\u82b1\u795e\u5496\u5561\u79c1\u5eda", "opening_hours": "Mo-Su 11:00-23:00", "outdoor_seating": "yes", "payment:apple_pay": "yes", "payment:cash": "yes", "payment:credit_cards": "yes", "payment:google_pay": "yes", "payment:mastercard": "yes", "payment:samsung_pay": "yes", "payment:visa": "yes", "phone": "+886 2 2363 9000", "smoking": "outside", "toilets:wheelchair": "no", "website": "https://www.facebook.com/deFloraCafeShida/", "wheelchair": "limited"}}, {"type": "node", "id": 2383980622, "lat": 25.0227507, "lon": 121.5266016, "tags": {"addr:city": "\u81fa\u5317\u5e02", "addr:country": "TW", "addr:district": "\u5927\u5b89\u5340", "addr:housenumber": "2", "addr:postcode": "106", "addr:street": "\u6d66\u57ce\u885726\u5df7", "amenity": "restaurant", "cuisine": "chinese", "name": "\u83ef\u7f8e\u65b0\u53e4\u5178\u9eb5\u98df\u9928", "opening_hours": "Mo-Su 11:30-22:00", "phone": "+886 2 2368 0986", "source": "survey", "toilets:wheelchair": "no", "wheelchair": "no"}}, {"type": "node", "id": 2386218383, "lat": 25.0220859, "lon": 121.5261651, "tags": {"addr:city": "\u81fa\u5317\u5e02", "addr:country": "TW", "addr:district": "\u4e2d\u6b63\u5340", "addr:housenumber": "70", "addr:postcode": "100", "addr:street": "\u7f85\u65af\u798f\u8def\u4e09\u6bb5", "amenity": "restaurant", "name": "\u6c60\u4e0a\u6728\u7247\u4fbf\u7576", "survey:date": "2013-07-16", "toilets:wheelchair": "no", "wheelchair": "yes"}}, {"type": "node", "id": 2386218385, "lat": 25.022031, "lon": 121.5262492, "tags": {"addr:city": "\u81fa\u5317\u5e02", "addr:country": "TW", "addr:district": "\u4e2d\u6b63\u5340", "addr:housenumber": "74-1", "addr:postcode": "100", "addr:street": "\u7f85\u65af\u798f\u8def\u4e09\u6bb5", "amenity": "restaurant", "cuisine": "noodle", "name": "\u937e\u570b\u9eb5\u98df", "survey:date": "2013-07-16", "toilets:wheelchair": "no", "wheelchair": "no"}}, {"type": "node", "id": 2393783453, "lat": 25.0315274, "lon": 121.5286731, "tags": {"addr:city": "\u53f0\u5317\u5e02", "addr:country": "TW", "addr:district": "\u5927\u5b89\u5340", "addr:housenumber": "105", "addr:postcode": "106", "addr:street": "\u611b\u570b\u6771\u8def", "amenity": "restaurant", "cuisine": "beef_noodle", "name": "\u8001\u5f35\u725b\u8089\u9eb5", "phone": "+886 2 2396-0927", "website": "http://www.lao-zhang.com.tw/"}}, {"type": "node", "id": 2396085350, "lat": 25.0359342, "lon": 121.5441705, "tags": {"amenity": "restaurant", "cuisine": "dumpling", "name": "\u9903\u5b50\u6a02\u9903\u5b50\u9928"}}, {"type": "node", "id": 2396910203, "lat": 25.0339061, "lon": 121.5501334, "tags": {"addr:city": "\u81fa\u5317\u5e02", "addr:country": "TW", "addr:district": "\u5927\u5b89\u5340", "addr:housenumber": "153", "addr:postcode": "106", "addr:street": "\u4fe1\u7fa9\u8def\u56db\u6bb5", "amenity": "restaurant", "diet:vegan": "yes", "diet:vegetarian": "only", "name": "\u84ee\u6c60\u95a3\u7d20\u98df\u9910\u5ef3", "phone": "+886 2 2703 5612"}}, {"type": "node", "id": 2400372302, "lat": 25.0325334, "lon": 121.5393662, "tags": {"amenity": "restaurant", "cuisine": "dumpling", "name": "\u5e78\u798f\u9eb5\u98df\u9903\u5b50\u9928", "phone": "+886-2-27067253"}}, {"type": "node", "id": 2406793659, "lat": 25.0309917, "lon": 121.560371, "tags": {"addr:city": "\u53f0\u5317\u5e02", "addr:country": "TW", "addr:district": "\u4fe1\u7fa9\u5340", "addr:housenumber": "53", "addr:postcode": "110", "addr:street": "\u5433\u8208\u8857", "amenity": "restaurant", "cuisine": "pizza", "name": "Spaggo - Pasta House", "opening_hours": "Mo-Su 11:00-21:00", "phone": "+886 2 23458869; +886 2 23455079", "source": "survey", "wheelchair": "limited"}}, {"type": "node", "id": 2407130770, "lat": 25.0308745, "lon": 121.560336, "tags": {"amenity": "restaurant", "name": "\u5c0f\u6b47"}}, {"type": "node", "id": 2407901301, "lat": 25.0302238, "lon": 121.5609352, "tags": {"amenity": "restaurant", "brand": "\u6eab\u5dde\u5927\u991b\u98e9", "name": "\u8001\u864e\u91ac\u6eab\u5dde\u5927\u991b\u98e9"}}, {"type": "node", "id": 2410088474, "lat": 25.0342244, "lon": 121.5460776, "tags": {"addr:city": "\u53f0\u5317\u5e02", "addr:country": "TW", "addr:district": "\u5927\u5b89\u5340", "addr:full": "\u53f0\u5317\u5e02\u5927\u5b89\u5340\u5927\u5b89\u8def\u4e00\u6bb5235\u865f", "addr:housenumber": "235", "addr:postcode": "106", "addr:street": "\u5927\u5b89\u8def\u4e00\u6bb5", "amenity": "restaurant", "cuisine": "hotpot", "name": "\u6ab8\u6aac\u8349\u706b\u934b\u5e97", "wheelchair": "no", "wheelchair:description": "\u5165\u53e3\u6709\u5169\u968e\u968e\u68af\uff0c\u56e0\u662f\u74e6\u65af\u7210\u7121\u6cd5\u79fb\u52d5\u684c\u5b50\uff0c\u7528\u9910\u53bb\u6709\u904e\u5c0f\u7684\u7591\u616e\u3002"}}, {"type": "node", "id": 2410161242, "lat": 25.0268665, "lon": 121.556612, "tags": {"amenity": "restaurant", "brand": "\u5477\u5c1a\u5bf6", "name": "\u5477\u5c1a\u5bf6", "source": "Bing"}}, {"type": "node", "id": 2410161246, "lat": 25.0268783, "lon": 121.5565232, "tags": {"amenity": "restaurant", "name": "\u798f\u6b23\u7de3", "source": "Bing"}}, {"type": "node", "id": 2410161250, "lat": 25.0269131, "lon": 121.5563623, "tags": {"amenity": "restaurant", "cuisine": "beef_noodle", "name": "\u5bb6\u994c\u725b\u8089\u9eb5\u6c34\u9903", "source": "Bing"}}, {"type": "node", "id": 2410161255, "lat": 25.0269978, "lon": 121.5562744, "tags": {"amenity": "restaurant", "cuisine": "japanese", "name": "\u4e00\u58fd\u990a\u5eb5"}}, {"type": "node", "id": 2410161261, "lat": 25.0270936, "lon": 121.5563473, "tags": {"amenity": "restaurant", "cuisine": "donut", "name": "\u8edf\u98df\u529b", "source": "Bing"}}, {"type": "node", "id": 2410161265, "lat": 25.0276342, "lon": 121.5557273, "tags": {"amenity": "restaurant", "name": "\u674e\u798f\u8a18\u6392\u9aa8\u6ef7\u5473", "source": "Bing"}}, {"type": "node", "id": 2410161305, "lat": 25.0273882, "lon": 121.5556892, "tags": {"amenity": "restaurant", "cuisine": "chinese", "name": "\u738b\u8a18\u5e9c\u57ce\u8089\u7cbd", "source": "Bing"}}, {"type": "node", "id": 2410161309, "lat": 25.0273406, "lon": 121.5556487, "tags": {"amenity": "restaurant", "name": "\u660e\u6708\u6e6f\u5305", "source": "Bing"}}, {"type": "node", "id": 2410161313, "lat": 25.027296, "lon": 121.5555894, "tags": {"addr:city": "\u81fa\u5317\u5e02", "addr:country": "TW", "addr:district": "\u5927\u5b89\u5340", "addr:housenumber": "166", "addr:postcode": "106", "addr:street": "\u57fa\u9686\u8def\u4e8c\u6bb5", "amenity": "restaurant", "name": "\u8fa3\u9738\u5b50", "source": "Bing"}}, {"type": "node", "id": 2410161316, "lat": 25.0272354, "lon": 121.555528, "tags": {"amenity": "restaurant", "name": "\u6eff\u71d2\u8089\u4e3c\u98df\u5802", "source": "Bing"}}, {"type": "node", "id": 2410699190, "lat": 25.0276579, "lon": 121.5565268, "tags": {"amenity": "restaurant", "name": "\u9806\u8208\u767c\u81ea\u52a9\u9910", "source": "Bing"}}, {"type": "node", "id": 2420107108, "lat": 25.0407086, "lon": 121.5459351, "tags": {"addr:city": "\u81fa\u5317\u5e02", "addr:country": "TW", "addr:district": "\u5927\u5b89\u5340", "addr:housenumber": "90", "addr:postcode": "106", "addr:street": "\u5927\u5b89\u8def\u4e00\u6bb5", "amenity": "restaurant", "name": "Hello Kitty Sweets Restaurant"}}, {"type": "node", "id": 2420117194, "lat": 25.013345, "lon": 121.5344975, "tags": {"addr:city": "\u81fa\u5317\u5e02", "addr:country": "TW", "addr:district": "\u4e2d\u6b63\u5340", "addr:housenumber": "168", "addr:postcode": "100", "addr:street": "\u6c40\u5dde\u8def\u4e09\u6bb5", "amenity": "restaurant", "disused:old_name": "Sky Kitchen Airbus A380-themed", "name": "Just Curry", "toilets:wheelchair": "no", "wheelchair": "no", "wheelchair:description": "\u5e97\u5bb6\u5de5\u4f5c\u4eba\u54e1\u6703\u4e3b\u52d5\u5354\u52a9"}}, {"type": "node", "id": 2426176904, "lat": 25.0335186, "lon": 121.5301015, "tags": {"addr:city": "\u81fa\u5317\u5e02", "addr:country": "TW", "addr:district": "\u5927\u5b89\u5340", "addr:housenumber": "194", "addr:postcode": "106", "addr:street": "\u4fe1\u7fa9\u8def\u4e8c\u6bb5", "amenity": "restaurant", "brand": "\u9f0e\u6cf0\u8c50", "cuisine": "regional", "name": "\u9f0e\u6cf0\u8c50", "name:ja": "\u9f0e\u6cf0\u8c50 \u4fe1\u7fa9\u672c\u5e97", "name:ko": "\ub518\ub2e4\uc774\ud391", "opening_hours": "Mo-Fr 10:00-21:00; Sa-Su 09:00-21:00", "toilets:wheelchair": "no", "wheelchair": "no"}}, {"type": "node", "id": 2450658611, "lat": 25.0426429, "lon": 121.5628839, "tags": {"amenity": "restaurant", "cuisine": "breakfast", "name": "\u96c5\u52a0\u9054\u65e9\u9910\u5e97"}}, {"type": "node", "id": 2450658706, "lat": 25.0420241, "lon": 121.5553136, "tags": {"amenity": "restaurant", "name": "\u5321\u5409\u6dae\u71d2\u934b"}}, {"type": "node", "id": 2450658708, "lat": 25.0419322, "lon": 121.5551059, "tags": {"amenity": "restaurant", "name": "\u9bae\u4e94\u4e95"}}, {"type": "node", "id": 2450658709, "lat": 25.0420597, "lon": 121.5551376, "tags": {"amenity": "restaurant", "cuisine": "beef_noodle", "name": "\u6b63\u5b97\u8001\u9127\u725b\u8089\u9eb5"}}, {"type": "node", "id": 2450658710, "lat": 25.0420305, "lon": 121.5549874, "tags": {"amenity": "restaurant", "name": "\u6e05\u771f\u4e2d\u570b\u725b\u8089\u9928"}}, {"type": "node", "id": 2450658734, "lat": 25.0420155, "lon": 121.5547547, "tags": {"amenity": "restaurant", "name": "\u694a\u8a18\u5927\u991b\u98e9"}}, {"type": "node", "id": 2450658783, "lat": 25.0419236, "lon": 121.5547943, "tags": {"addr:city": "\u53f0\u5317\u5e02", "addr:country": "TW", "addr:district": "\u5927\u5b89\u5340", "addr:housenumber": "6-2", "addr:postcode": "106", "addr:street": "\u5ef6\u5409\u8857137\u5df7", "amenity": "restaurant", "name": "Hong Kong\u8336\u6c34\u6524", "phone": "(02)2772-5252", "website": "http://www.100.look.tw/Food/rest_home.aspx?rest_id=0000389&Plus=Y"}}, {"type": "node", "id": 2455453883, "lat": 25.0343671, "lon": 121.5275226, "tags": {"amenity": "restaurant", "name": "\u6771\u9580\u9d5d\u8089\u6524"}}, {"type": "node", "id": 2460009740, "lat": 25.0343976, "lon": 121.533032, "tags": {"addr:city": "\u53f0\u5317\u5e02", "addr:country": "TW", "addr:district": "\u5927\u5b89\u5340", "addr:housenumber": "161-3", "addr:postcode": "10061", "addr:street": "\u65b0\u751f\u5357\u8def\u4e00\u6bb5", "amenity": "restaurant", "cuisine": "japanese", "name": "\u5927\u5b89\u68ee\u6797\u98df\u5802", "operator": "\u307e\u3044\u3069\u304a\u304a\u304d\u306b\u98df\u5802", "takeaway": "yes"}}, {"type": "node", "id": 2469649608, "lat": 25.0452495, "lon": 121.5363151, "tags": {"amenity": "restaurant", "name": "\u8001\u9b4f\u56db\u5ddd\u5766\u5766\u9eb5"}}, {"type": "node", "id": 2470166878, "lat": 25.0155342, "lon": 121.5326452, "tags": {"addr:city": "\u81fa\u5317\u5e02", "addr:country": "TW", "addr:district": "\u4e2d\u6b63\u5340", "addr:housenumber": "3\u4e4b4", "addr:postcode": "100", "addr:street": "\u7f85\u65af\u798f\u8def\u4e09\u6bb5316\u5df78\u5f04", "amenity": "restaurant", "cuisine": "thai", "name": "\u6cf0\u5473\u9bae\u6cf0\u5f0f\u4e3b\u984c\u9910\u5ef3", "toilets:wheelchair": "no", "wheelchair": "yes"}}, {"type": "node", "id": 2470166947, "lat": 25.0422288, "lon": 121.539811, "tags": {"amenity": "restaurant", "name": "\u994c\u5473\u9999"}}, {"type": "node", "id": 2473232853, "lat": 25.0220761, "lon": 121.54131, "tags": {"addr:city": "\u81fa\u5317\u5e02", "addr:country": "TW", "addr:district": "\u5927\u5b89\u5340", "addr:housenumber": "35", "addr:postcode": "106", "addr:street": "\u548c\u5e73\u6771\u8def\u4e8c\u6bb5118\u5df754\u5f04", "amenity": "restaurant", "cuisine": "chinese", "name": "\u5927\u674e\u6c34\u9903", "name:en": "Da Lee Dumpling", "name:zh": "\u5927\u674e\u6c34\u9903"}}, {"type": "node", "id": 2473232860, "lat": 25.0216679, "lon": 121.5409261, "tags": {"addr:country": "TW", "addr:housenumber": "169", "addr:street": "\u8f9b\u4ea5\u8def\u4e8c\u6bb5", "amenity": "restaurant", "cuisine": "curry", "disused:name": "Zheng Da Beef Noodle", "name": "\u539a\u5b85\u5496\u54e9"}}, {"type": "node", "id": 2473232863, "lat": 25.0219291, "lon": 121.5419272, "tags": {"addr:city": "\u81fa\u5317\u5e02", "addr:country": "TW", "addr:district": "\u5927\u5b89\u5340", "addr:housenumber": "24", "addr:postcode": "106", "addr:street": "\u548c\u5e73\u6771\u8def\u4e8c\u6bb5118\u5df754\u5f04", "amenity": "restaurant", "cuisine": "curry", "disused:name": "\u99ac\u9234\u85af\u5496\u54e9\u5c4b", "disused:name:en": "Potato Curry", "name": "\u83c1\u5b8f\u6ef7\u8089\u98ef", "toilets:wheelchair": "no", "wheelchair": "yes"}}, {"type": "node", "id": 2473232867, "lat": 25.0220798, "lon": 121.5413918, "tags": {"addr:city": "\u81fa\u5317\u5e02", "addr:country": "TW", "addr:district": "\u5927\u5b89\u5340", "addr:housenumber": "33", "addr:postcode": "106", "addr:street": "\u548c\u5e73\u6771\u8def\u4e8c\u6bb5118\u5df754\u5f04", "amenity": "restaurant", "name": "\u5409\u91ce\u70e4\u8089\u98ef", "name:en": "Gold Town Barbecued", "name:zh": "\u5409\u91ce\u70e4\u8089\u98ef"}}, {"type": "node", "id": 2473232871, "lat": 25.0216483, "lon": 121.5421471, "tags": {"addr:city": "\u81fa\u5317\u5e02", "addr:country": "TW", "addr:district": "\u5927\u5b89\u5340", "addr:housenumber": "203", "addr:postcode": "106", "addr:street": "\u8f9b\u4ea5\u8def\u4e8c\u6bb5", "amenity": "restaurant", "cuisine": "chinese", "name": "\u6b63\u9999\u6d77\u5357\u96de\u98ef", "name:en": "Can Zhuang", "name:zh": "\u6b63\u9999\u6d77\u5357\u96de\u98ef"}}, {"type": "node", "id": 2473232878, "lat": 25.0217255, "lon": 121.542761, "tags": {"amenity": "restaurant", "cuisine": "chinese", "disused:name": "\u6709\u9322\u771f\u597d", "disused:name:en": "So Good to Have Money", "name": "\u5370\u6e21\u98a8\u60c5", "toilets:wheelchair": "no", "wheelchair": "yes", "wheelchair:description": "\u9580\u53e3\u5f88\u5e73\u7de9\uff0c\u4f46\u8d70\u9053\u8f03\u72f9\u5c0f"}}, {"type": "node", "id": 2473232881, "lat": 25.0221248, "lon": 121.5427517, "tags": {"amenity": "restaurant", "cuisine": "japanese", "disused:name": "\u5742\u672c\u5c4b", "disused:name:en": "Sakamoto House", "name": "\u674e\u8a18\u6c34\u9903", "toilets:wheelchair": "no", "wheelchair": "yes", "wheelchair:description": "\u9580\u53e3\u5bec\u655e\uff0c\u5e73\u7de9\uff0c\u5e97\u5167\u7a7a\u9593\u4e5f\u5f88\u5bec\u655e\uff0c\u65b9\u4fbf\u8f2a\u6905\u8005\u79fb\u52d5"}}, {"type": "node", "id": 2473232885, "lat": 25.0216763, "lon": 121.5429045, "tags": {"amenity": "restaurant", "cuisine": "chinese", "name": "\u5927\u6613\u5712", "name:en": "Sir Yi Barbecued", "name:zh": "\u5927\u6613\u5712", "toilets:wheelchair": "no", "wheelchair": "no", "wheelchair:description": "\u9580\u53e3\u6709\u5169\u968e\u81fa\u968e\uff0c\u5e97\u5167\u7a7a\u9593\u6709\u9ede\u7a84"}}, {"type": "node", "id": 2473232889, "lat": 25.0219534, "lon": 121.542926, "tags": {"addr:housenumber": "67", "addr:street": "\u548c\u5e73\u6771\u8def\u4e8c\u6bb5118\u5df7", "amenity": "restaurant", "cuisine": "chinese", "name": "\u73cd\u54c1\u5473\u6cf0\u5f0f\u70ad\u70e4", "name:en": "Thai Barbecued", "name:zh": "\u73cd\u54c1\u5473\u6cf0\u5f0f\u70ad\u70e4", "toilets:wheelchair": "no", "wheelchair": "no", "wheelchair:description": "\u6709\u5169\u968e\u81fa\u968e\uff0c\u9580\u53e3\u7a7a\u9593\u4e0d\u5927"}}, {"type": "node", "id": 2473232892, "lat": 25.0222353, "lon": 121.5429367, "tags": {"amenity": "restaurant", "cuisine": "indian", "name": "\u5496\u54e9\u5eda\u623f", "name:en": "Curry Kitchen", "name:zh": "\u5496\u54e9\u5eda\u623f", "toilets:wheelchair": "no", "wheelchair": "limited", "wheelchair:description": "\u5e97\u9580\u53e3\u6709\u5761\u9053\uff0c\u4f46\u5e97\u5167\u7a7a\u9593\u8f03\u4e0d\u65b9\u4fbf\u8f2a\u6905\u8005\u79fb\u52d5"}}, {"type": "node", "id": 2473232896, "lat": 25.0223155, "lon": 121.5429314, "tags": {"addr:city": "\u53f0\u5317\u5e02", "addr:country": "TW", "addr:district": "\u5927\u5b89\u5340", "addr:full": "\u53f0\u5317\u5e02\u5927\u5b89\u5340\u548c\u5e73\u6771\u8def\u4e8c\u6bb5118\u5df761\u865f", "addr:housenumber": "61", "addr:postcode": "106", "addr:street": "\u548c\u5e73\u6771\u8def\u4e8c\u6bb5118\u5df7", "amenity": "restaurant", "cuisine": "asian", "name": "\u61b6\u99ac\u7576\u9bae\u99ac\u4f86\u897f\u4e9e\u98a8\u5473\u6599\u7406", "name:en": "Malaysian Cuisine", "name:zh": "\u61b6\u99ac\u7576\u9bae\u99ac\u4f86\u897f\u4e9e\u98a8\u5473\u6599\u7406", "toilets:wheelchair": "no", "wheelchair": "yes", "wheelchair:description": "\u9580\u53e3\u5e73\u7de9\uff0c\u5bec\u655e\uff0c\u5e97\u5167\u7a7a\u9593\u4e5f\u8db3\u5920"}}, {"type": "node", "id": 2473232903, "lat": 25.0225817, "lon": 121.5429246, "tags": {"addr:housenumber": "57", "addr:street": "\u548c\u5e73\u6771\u8def\u4e8c\u6bb5118\u5df7", "amenity": "restaurant", "cuisine": "chinese", "name": "\u5c0f\u674e\u5b50\u725b\u8089\u9eb5", "name:en": "Xiao Lee Zi Noodle", "name:zh": "\u5c0f\u674e\u5b50\u725b\u8089\u9eb5", "toilets:wheelchair": "no", "wheelchair": "no", "wheelchair:description": "\u67092\u5c64\u81fa\u968e\uff0c\u5165\u53e3\u4e5f\u7a0d\u7a84\u4e0d\u65b9\u4fbf\u8f2a\u6905\u8005\u9032\u51fa"}}, {"type": "node", "id": 2473232907, "lat": 25.0225741, "lon": 121.542773, "tags": {"amenity": "restaurant", "cuisine": "chinese", "description": "Soup Noodle", "name": "\u6587\u54e5\u5df7\u5b50\u53e3\u53e4\u65e9\u5473\u7c73\u7c89\u6e6f"}}, {"type": "node", "id": 2473232913, "lat": 25.0229426, "lon": 121.5426283, "tags": {"addr:city": "\u53f0\u5317\u5e02", "addr:country": "TW", "addr:district": "\u5927\u5b89\u5340", "addr:housenumber": "44", "addr:postcode": "106", "addr:street": "\u548c\u5e73\u6771\u8def\u4e8c\u6bb5118\u5df7", "amenity": "restaurant", "cuisine": "chinese", "name": "\u5fe0\u8aa0\u5c71\u6771\u8525\u6cb9\u9905", "name:en": "Zhongcheng Shandong Scallion Pancake", "name:zh": "\u5fe0\u8aa0\u5c71\u6771\u8525\u6cb9\u9905", "phone": "+886 2 2735 2821", "toilets:wheelchair": "no", "wheelchair": "no", "wheelchair:description": "\u6709\u81fa\u968e\uff0c\u8f2a\u6905\u8005\u7121\u6cd5\u9032\u5165\uff0c\u7121\u5e97\u9762\uff0c\u8f2a\u6905\u8005\u4e5f\u7121\u6cd5\u66ab\u505c\u5728\u8def\u908a\u8cfc\u8cb7"}}, {"type": "node", "id": 2473232920, "lat": 25.023755, "lon": 121.5427597, "tags": {"addr:city": "\u53f0\u5317\u5e02", "addr:country": "TW", "addr:district": "\u5927\u5b89\u5340", "addr:full": "\u53f0\u5317\u5e02\u5927\u5b89\u5340\u548c\u5e73\u6771\u8def\u4e8c\u6bb5118\u5df74\u865f\u4e4b1", "addr:housenumber": "4\u865f\u4e4b1", "addr:postcode": "106", "addr:street": "\u548c\u5e73\u6771\u8def\u4e8c\u6bb5118\u5df7", "amenity": "restaurant", "diet:halal": "no", "diet:kosher": "no", "diet:vegan": "yes", "diet:vegetarian": "only", "disused:name": "\u90a3\u4e0d\u52d2\u65af\u62ab\u85a9\u5c4b", "disused:name:en": "Fifteen 15 Naples Pizza", "disused:name:zh": "\u90a3\u4e0d\u52d2\u65af\u62ab\u85a9\u5c4b", "name": "Ooh Cha Cha", "name:en": "Ooh Cha Cha", "name:zh": "Ooh Cha Cha", "opening_hours": "Mo-Su 11:30-00:00", "phone": "+886 2 2737 2994", "website": "https://oohchacha.com/", "wheelchair": "limited", "wheelchair:description": "\u9580\u53e3\u6709\u4e00\u500b\u968e\u68af\uff0c\u5e97\u5167\u4e5f\u8f03\u64c1\u64e0\u4e0d\u5229\u8f2a\u6905\u901a\u884c\u3002"}}, {"type": "node", "id": 2473232923, "lat": 25.0238042, "lon": 121.5429957, "tags": {"amenity": "restaurant", "cuisine": "italian", "name": "\u5927\u849c", "name:en": "Garlic Noodle", "name:zh": "\u5927\u849c", "wheelchair": "yes"}}, {"type": "node", "id": 2473232927, "lat": 25.0241335, "lon": 121.5428167, "tags": {"amenity": "restaurant", "cuisine": "italian", "name": "\u767c\u73fe\u7fa9\u5927\u5229\u9eb5", "name:en": "Discovery Noodle", "name:zh": "\u767c\u73fe\u7fa9\u5927\u5229\u9eb5", "wheelchair": "yes", "wheelchair:description": "\u5e97\u9580\u53e3\u6c92\u6709\u968e\u68af\uff0c\u8f2a\u6905\u53ef\u4ee5\u9806\u5229\u9032\u53bb\uff0c\u96d6\u7136\u5e97\u5167\u67092\u5c64\u968e\u68af\uff0c\u4e0d\u904e\u7528\u9910\u5340\u52062\u5340\uff0c\u9760\u8fd1\u5916\u9762\u9019\u4e00\u5340\u662f\u4e0d\u7528\u4e0a\u968e\u68af\u7684\uff01"}}, {"type": "node", "id": 2473232930, "lat": 25.0245066, "lon": 121.5428348, "tags": {"amenity": "restaurant", "cuisine": "indian", "name": "\u975a\u5b85\u5496\u54e9", "name:en": "Jing Curry", "name:zh": "\u975a\u5b85\u5496\u54e9", "toilets:wheelchair": "no", "wheelchair": "limited", "wheelchair:description": "\u9580\u53e3\u6709\u4e00\u9ede\u81fa\u968e\uff0c\u4f46\u6709\u659c\u5761\uff0c\u5e97\u5167\u7a7a\u9593\u8f03\u5c0f\uff0c\u8f2a\u6905\u8005\u96e3\u79fb\u52d5"}}, {"type": "node", "id": 2473232933, "lat": 25.0245953, "lon": 121.5428281, "tags": {"addr:city": "\u53f0\u5317\u5e02", "addr:country": "TW", "addr:district": "\u5927\u5b89\u5340", "addr:housenumber": "2", "addr:postcode": "106", "addr:street": "\u548c\u5e73\u6771\u8def\u4e8c\u6bb5118\u5df7", "amenity": "restaurant", "cuisine": "chinese", "name": "\u5c71\u897f\u5200\u524a\u9eb5", "name:en": "Shanxi Hand-shred Noodle", "name:zh": "\u5c71\u897f\u5200\u524a\u9eb5", "opening_hours": "Mo-Su 11:00-14:00,17:00-20:30", "phone": "+886 2 2378 7890", "toilets:wheelchair": "no", "wheelchair": "yes", "wheelchair:description": "\u9580\u53e3\u6709\u659c\u5761\u53ef\u4ee5\u8b93\u8f2a\u6905\u9032\u51fa\uff0c\u5e97\u5167\u7a7a\u9593\u4e5f\u7b97\u5bec\u655e"}}, {"type": "node", "id": 2473232940, "lat": 25.0228235, "lon": 121.541204, "tags": {"addr:city": "\u53f0\u5317\u5e02", "addr:country": "TW", "addr:district": "\u5927\u5b89\u5340", "addr:housenumber": "39", "addr:street": "\u8f9b\u4ea5\u8def\u4e8c\u6bb5171\u5df7", "amenity": "restaurant", "disused:amenity": "restaurant", "disused:name": "Jiu Ping Breakfast", "name": "\u6eab\u5dde\u5927\u6df7\u6c8c"}}, {"type": "node", "id": 2473232943, "lat": 25.0229447, "lon": 121.5411937, "tags": {"addr:city": "\u53f0\u5317\u5e02", "addr:country": "TW", "addr:district": "\u5927\u5b89\u5340", "addr:housenumber": "27", "addr:street": "\u8f9b\u4ea5\u8def\u4e8c\u6bb5171\u5df7", "amenity": "restaurant", "cuisine": "breakfast", "disused:amenity": "restaurant", "disused:name": "Mei Mei Breakfast", "name": "\u4e5d\u54c1\u65e9\u9910\u5e97"}}, {"type": "node", "id": 2473232946, "lat": 25.0222803, "lon": 121.5410337, "tags": {"amenity": "restaurant", "cuisine": "chinese", "name": "\u5317\u65b9\u5927\u9678\u9905", "name:en": "Northern Chinese Cake", "name:zh": "\u5317\u65b9\u5927\u9678\u9905"}}, {"type": "node", "id": 2473232949, "lat": 25.0233436, "lon": 121.5412094, "tags": {"addr:city": "\u53f0\u5317\u5e02", "addr:country": "TW", "addr:district": "\u5927\u5b89\u5340", "addr:housenumber": "15\u4e4b1", "addr:postcode": "106", "addr:street": "\u548c\u5e73\u6771\u8def\u4e8c\u6bb596\u5df7", "amenity": "restaurant", "disused:name": "Sheng Jing House", "name": "\u53f0\u8d8a\u7f8e\u98df", "name:en": "Tai Yue Food", "name:zh": "\u53f0\u8d8a\u7f8e\u98df", "opening_hours": "Mo-Su 11:00-14:30,17:00-20:30", "phone": "+886 2 2735 1750"}}, {"type": "node", "id": 2473232953, "lat": 25.0233962, "lon": 121.5410135, "tags": {"addr:city": "\u81fa\u5317\u5e02", "addr:country": "TW", "addr:district": "\u5927\u5b89\u5340", "addr:housenumber": "8\u4e4b3", "addr:postcode": "106", "addr:street": "\u548c\u5e73\u6771\u8def\u4e8c\u6bb596\u5df7", "amenity": "restaurant", "cuisine": "chinese", "name": "\u5679\u98df\u9eb5"}}, {"type": "node", "id": 2473232956, "lat": 25.0218705, "lon": 121.5431894, "tags": {"addr:city": "\u53f0\u5317\u5e02", "addr:country": "TW", "addr:district": "\u5927\u5b89\u5340", "addr:full": "\u53f0\u5317\u5e02\u5927\u5b89\u5340\u5fa9\u8208\u5357\u8def\u4e8c\u6bb5362\u865f", "addr:housenumber": "362", "addr:postcode": "106", "addr:street": "\u5fa9\u8208\u5357\u8def\u4e8c\u6bb5", "amenity": "restaurant", "cuisine": "chinese", "name": "\u9577\u8208\u5c0f\u8216", "name:en": "Chang Xing Restaurant", "name:zh": "\u9577\u8208\u5c0f\u8216", "phone": "+886 2 2739 5777"}}, {"type": "node", "id": 2473232960, "lat": 25.0222439, "lon": 121.5421075, "tags": {"addr:city": "\u53f0\u5317\u5e02", "addr:country": "TW", "addr:district": "\u5927\u5b89\u5340", "addr:housenumber": "14", "addr:postcode": "106", "addr:street": "\u548c\u5e73\u6771\u8def\u4e8c\u6bb5118\u5df752\u5f04", "amenity": "restaurant", "cuisine": "chinese", "name": "\u89aa\u4f86\u98df\u5802", "name:en": "Qing Lai Restaurant", "name:zh": "\u89aa\u4f86\u98df\u5802"}}, {"type": "node", "id": 2473808471, "lat": 25.0162515, "lon": 121.5324629, "tags": {"addr:city": "\u81fa\u5317\u5e02", "addr:country": "TW", "addr:district": "\u4e2d\u6b63\u5340", "addr:full": "100\u53f0\u5317\u5e02\u4e2d\u6b63\u5340\u7f85\u65af\u798f\u8def\u4e09\u6bb5306\u865f", "addr:housenumber": "306", "addr:postcode": "100", "addr:street": "\u7f85\u65af\u798f\u8def\u4e09\u6bb5", "amenity": "restaurant", "branch": "\u516c\u9928\u5e97", "cuisine": "thai", "disused:name": "La new", "disused:shop": "shoes", "name": "\u53f3\u624b\u9910\u5ef3\u65b0\u6cf0\u5f0f\u5b9a\u98df", "name:en": "ThaiHand", "name:zh": "\u53f3\u624b\u9910\u5ef3\u65b0\u6cf0\u5f0f\u5b9a\u98df", "opening_hours": "Mo-Su 11:00-22:00", "phone": "+886 2 2369 2582", "toilets:wheelchair": "no", "website": "https://www.thaihand.tw/", "wheelchair": "limited"}}, {"type": "node", "id": 2473808901, "lat": 25.0165973, "lon": 121.5319921, "tags": {"amenity": "restaurant", "name": "\u611b\u6a02\u5eda\u623f\u9285\u76e4\u70e4\u8089 \u97d3\u5f0f\u7f8e\u98df", "wheelchair": "no"}}, {"type": "node", "id": 2473809699, "lat": 25.0170455, "lon": 121.5312576, "tags": {"addr:city": "\u81fa\u5317\u5e02", "addr:country": "TW", "addr:district": "\u4e2d\u6b63\u5340", "addr:housenumber": "2-1", "addr:postcode": "100", "addr:street": "\u7f85\u65af\u798f\u8def\u4e09\u6bb5244\u5df7", "amenity": "restaurant", "brand": "\u6c38\u548c\u8c46\u6f3f", "brand:en": "Yonghe Soy Milk", "brand:wikidata": "Q11131335", "brand:wikipedia": "zh:\u6c38\u548c\u8c46\u6f3f", "cuisine": "chinese;breakfast", "name": "\u6c38\u548c\u8c46\u6f3f", "name:en": "Yonghe Soy Milk", "name:zh": "\u6c38\u548c\u8c46\u6f3f", "toilets:wheelchair": "no", "wheelchair": "no"}}, {"type": "node", "id": 2473809733, "lat": 25.0169387, "lon": 121.5310768, "tags": {"amenity": "restaurant", "cuisine": "beef_noodle", "name": "\u540d\u5bb6\u725b\u8089\u9eb5", "toilets:wheelchair": "no"}}, {"type": "node", "id": 2473809877, "lat": 25.0169213, "lon": 121.5308162, "tags": {"addr:city": "\u81fa\u5317\u5e02", "addr:country": "TW", "addr:district": "\u4e2d\u6b63\u5340", "addr:housenumber": "7", "addr:postcode": "100", "addr:street": "\u7f85\u65af\u798f\u8def\u4e09\u6bb5244\u5df7", "amenity": "restaurant", "name": "\u6cf0\u7687\u5c0f\u9928", "toilets:wheelchair": "no", "wheelchair": "yes"}}, {"type": "node", "id": 2473809949, "lat": 25.0167357, "lon": 121.5306544, "tags": {"addr:city": "\u81fa\u5317\u5e02", "addr:country": "TW", "addr:district": "\u4e2d\u6b63\u5340", "addr:housenumber": "11", "addr:postcode": "100", "addr:street": "\u7f85\u65af\u798f\u8def\u4e09\u6bb5244\u5df7", "amenity": "restaurant", "name": "\u4f73\u5947\u71d2\u70e4\u98ef", "toilets:wheelchair": "yes", "wheelchair": "yes"}}, {"type": "node", "id": 2473810198, "lat": 25.0404316, "lon": 121.531282, "tags": {"amenity": "restaurant", "name": "\u9d5d\u8089\u53f0\u5357\u610f\u9eb5"}}, {"type": "node", "id": 2490656675, "lat": 25.0402517, "lon": 121.5259137, "tags": {"amenity": "restaurant", "name": "\u611b\u9999\u5712"}}, {"type": "node", "id": 2499041276, "lat": 25.0399153, "lon": 121.5546855, "tags": {"addr:city": "\u81fa\u5317\u5e02", "addr:country": "TW", "addr:district": "\u5927\u5b89\u5340", "addr:housenumber": "2", "addr:postcode": "106", "addr:street": "\u5ef6\u5409\u8857138\u5df7", "amenity": "restaurant", "cuisine": "chinese;Xinjiang;Mongolia", "name": "\u965d\u897f\u79e6\u5473\u9928", "toilets": "yes", "toilets:access": "customers", "toilets:disposal": "flush", "toilets:position": "seated;urinal", "toilets:wheelchair": "no"}}, {"type": "node", "id": 2551991669, "lat": 25.0261846, "lon": 121.5282758, "tags": {"amenity": "restaurant", "cuisine": "thai", "name": "\u96f2\u6cf0\u5c0f\u98ef\u9928"}}, {"type": "node", "id": 2553746041, "lat": 25.0453371, "lon": 121.5463864, "tags": {"amenity": "restaurant", "name": "\u53e4\u65e9\u5473\u53e4\u65e9\u9eb5"}}, {"type": "node", "id": 2558214795, "lat": 25.0238609, "lon": 121.5343595, "tags": {"addr:city": "\u53f0\u5317\u5e02", "addr:country": "TW", "addr:district": "\u5927\u5b89\u5340", "addr:full": "\u53f0\u5317\u5e02\u5927\u5b89\u5340\u65b0\u751f\u5357\u8def\u4e09\u6bb528\u865f", "addr:housenumber": "28", "addr:postcode": "106", "addr:street": "\u65b0\u751f\u5357\u8def\u4e09\u6bb5", "amenity": "restaurant", "cuisine": "chinese", "name": "\u83ab\u5bb0\u7f8a", "phone": "+886-2-2369-1466", "website": "http://www.mjy.com.tw/new/store3.htm", "wheelchair": "limited"}}, {"type": "node", "id": 2558223179, "lat": 25.0232125, "lon": 121.5291539, "tags": {"amenity": "restaurant", "cuisine": "regional", "name": "\u5065\u5eb7\u6ef7\u5473", "wheelchair": "no"}}, {"type": "node", "id": 2558223809, "lat": 25.0256706, "lon": 121.5301629, "tags": {"amenity": "restaurant", "cuisine": "regional", "name": "\u6210\u90fd\u9eb5\u5e97"}}, {"type": "node", "id": 2572568012, "lat": 25.0119693, "lon": 121.5357688, "tags": {"addr:city": "\u81fa\u5317\u5e02", "addr:country": "TW", "addr:district": "\u4e2d\u6b63\u5340", "addr:housenumber": "295", "addr:postcode": "100", "addr:street": "\u6c40\u5dde\u8def\u4e09\u6bb5", "amenity": "restaurant", "disused:amenity": "restaurant", "disused:name": "\u5929\u9ebb", "name": "\u5c0f\u99ac\u8fa3"}}, {"type": "node", "id": 2579109207, "lat": 25.0439211, "lon": 121.5465903, "tags": {"addr:city": "\u53f0\u5317\u5e02", "addr:country": "TW", "addr:district": "\u5927\u5b89\u5340", "addr:housenumber": "8", "addr:postcode": "106", "addr:street": "\u5927\u5b89\u8def\u4e00\u6bb531\u5df7", "amenity": "restaurant", "name": "\u9673\u967d\u9d5d\u8089\u5927\u738b", "name:en": "Chen & Yang Goose Meat", "name:zh": "\u9673\u967d\u9d5d\u8089\u5927\u738b", "opening_hours": "Mo-Su 11:00-22:00", "phone": "+886-2-2775-5252"}}, {"type": "node", "id": 2595303815, "lat": 25.0215923, "lon": 121.5279251, "tags": {"addr:housename": "\u5e2b\u5927\u8def126\u5df71\u865f", "amenity": "restaurant", "cuisine": "regional", "name": "\u7ca5\u6f64\u767c", "toilets:wheelchair": "no", "wheelchair": "no"}}, {"type": "node", "id": 2595303823, "lat": 25.0218136, "lon": 121.527726, "tags": {"addr:city": "\u53f0\u5317\u5e02", "addr:country": "TW", "addr:district": "\u5927\u5b89\u5340", "addr:full": "\u53f0\u5317\u5e02\u5e2b\u5927\u8def126\u5df75\u865f", "addr:housenumber": "5", "addr:postcode": "100", "addr:street": "\u5e2b\u5927\u8def126\u5df7", "amenity": "restaurant", "cuisine": "italian", "name": "\u7fa9\u9eb5\u9928"}}, {"type": "node", "id": 2595303832, "lat": 25.0219273, "lon": 121.5275396, "tags": {"addr:housename": "\u53f0\u5317\u5e02\u5e2b\u5927\u8def126\u5df711\u865f", "amenity": "restaurant", "cuisine": "regional", "cuisine:zh": "\u4e2d\u5f0f", "name": "\u5927\u7076\u76ca\u990a\u751f\u8c6c\u8173"}}, {"type": "node", "id": 2595510397, "lat": 25.022045, "lon": 121.5547711, "tags": {"addr:city": "\u81fa\u5317\u5e02", "addr:country": "TW", "addr:district": "\u5927\u5b89\u5340", "addr:housenumber": "232", "addr:postcode": "106", "addr:street": "\u548c\u5e73\u6771\u8def\u4e09\u6bb5", "amenity": "restaurant", "cuisine": "chinese", "name": "\u798f\u8cd3\u5ddd\u6e58\u7ba1"}}, {"type": "node", "id": 2597965496, "lat": 25.0332159, "lon": 121.5299614, "tags": {"amenity": "restaurant", "cuisine": "chinese", "name": "\u9ad8\u8a18\u4e0a\u6d77\u9ede\u5fc3\u6d59\u6eec\u7f8e\u994c", "name:en": "Kao Chi", "name:ja": "\u9ad8\u8a18", "name:ko": "\uac00\uc624\uc9c0", "name:zh": "\u9ad8\u8a18\u4e0a\u6d77\u9ede\u5fc3\u6d59\u6eec\u7f8e\u994c", "opening_hours": "Mo-Fr 09:30-22:30; Sa-Su 08:30-22:30", "phone": "02 2341 9984"}}, {"type": "node", "id": 2597965506, "lat": 25.0330756, "lon": 121.5301638, "tags": {"addr:city": "\u53f0\u5317\u5e02", "addr:country": "TW", "addr:district": "\u5927\u5b89\u5340", "addr:full": "\u53f0\u5317\u5e02\u6c38\u5eb7\u88577\u5df72\u865f1\u6a13", "addr:housenumber": "2", "addr:lane": "7", "addr:level": "1", "addr:postcode": "106", "addr:street": "\u6c38\u5eb7\u8857", "amenity": "restaurant", "name": "\u5927\u4f86\u5c0f\u9928\u6c38\u5eb7\u65d7\u8266\u5e97", "opening_hours": "Mo-Th 11:30-14:00,16:30-21:00;Fr-Su 11:30-21:00", "phone": "+886-2-2357-9678", "website": "http://www.dalaifood.com"}}, {"type": "node", "id": 2597965510, "lat": 25.033089, "lon": 121.5300833, "tags": {"addr:city": "\u81fa\u5317\u5e02", "addr:country": "TW", "addr:district": "\u5927\u5b89\u5340", "addr:housenumber": "2", "addr:postcode": "106", "addr:street": "\u6c38\u5eb7\u88577\u5df7", "amenity": "restaurant", "name": "\u5de7\u514b\u54c8\u5ba2", "opening_hours": "Mo-Fr 13:30-22:30; PH,Sa-Su 11:00-22:00", "phone": "+886 2 2321 5820", "website": "https://www.chocoholic.com.tw/"}}, {"type": "node", "id": 2601117060, "lat": 25.0377198, "lon": 121.5324716, "tags": {"addr:city": "\u81fa\u5317\u5e02", "addr:country": "TW", "addr:district": "\u4e2d\u6b63\u5340", "addr:housenumber": "124", "addr:postcode": "100", "addr:street": "\u65b0\u751f\u5357\u8def\u4e00\u6bb5", "amenity": "restaurant", "name": "\u7121\u8001\u934b"}}, {"type": "node", "id": 2601117061, "lat": 25.0379716, "lon": 121.5323394, "tags": {"addr:city": "\u81fa\u5317\u5e02", "addr:country": "TW", "addr:district": "\u4e2d\u6b63\u5340", "addr:housenumber": "108", "addr:postcode": "100", "addr:street": "\u4ec1\u611b\u8def\u4e8c\u6bb5", "amenity": "restaurant", "branch": "\u4ec1\u611b\u5e97", "level": "0", "name": "\u8cb3\u6a13\u9910\u5ef3", "name:en": "Second floor Caf\u00e9", "name:zh": "\u8cb3\u6a13\u9910\u5ef3", "opening_hours": "Mo-Fr 10:00-22:30; Sa, Su 08:00-22:30", "phone": "+886 2 2357 9222", "website": "https://www.secondfloorcafe.com/", "wheelchair": "yes"}}, {"type": "node", "id": 2609549900, "lat": 25.0121369, "lon": 121.5354393, "tags": {"addr:city": "\u81fa\u5317\u5e02", "addr:country": "TW", "addr:district": "\u4e2d\u6b63\u5340", "addr:housenumber": "204", "addr:postcode": "100", "addr:street": "\u6c40\u5dde\u8def\u4e09\u6bb5", "amenity": "restaurant", "branch": "\u516c\u9928\u5e97", "brand": "\u4e09\u5abd\u81ed\u81ed\u934b", "name": "\u4e09\u5abd\u81ed\u81ed\u934b", "opening_hours": "Mo-Su 11:00-23:30", "phone": "+886-2-2365-6336", "toilets:wheelchair": "no", "wheelchair": "limited"}}, {"type": "node", "id": 2609549933, "lat": 25.0121983, "lon": 121.5354167, "tags": {"addr:city": "\u81fa\u5317\u5e02", "addr:country": "TW", "addr:district": "\u4e2d\u6b63\u5340", "addr:housenumber": "202", "addr:postcode": "100", "addr:street": "\u6c40\u5dde\u8def\u4e09\u6bb5", "amenity": "restaurant", "name": "\u5c0f\u98ef\u9928\u5152", "toilets:wheelchair": "no", "wheelchair": "limited"}}, {"type": "node", "id": 2621123720, "lat": 25.0251714, "lon": 121.5490867, "tags": {"addr:city": "\u81fa\u5317\u5e02", "addr:country": "TW", "addr:district": "\u5927\u5b89\u5340", "addr:housenumber": "269", "addr:postcode": "106", "addr:street": "\u6566\u5316\u5357\u8def\u4e8c\u6bb5", "amenity": "restaurant", "branch": "\u6566\u5357\u548c\u5e73\u5e97", "capacity": "50", "cuisine": "japanese", "name": "\u5f4c\u751f\u8ed2", "name:en": "Yayoi Teishoku", "name:zh": "\u5f4c\u751f\u8ed2", "opening_hours": "11:00~22:00 (L.O.21:00)", "phone": "+886-2-23775335", "website": "http://www.yayoi.com.tw"}}, {"type": "node", "id": 2624501831, "lat": 25.0186446, "lon": 121.5317168, "tags": {"addr:city": "\u81fa\u5317\u5e02", "addr:country": "TW", "addr:district": "\u5927\u5b89\u5340", "addr:full": "106\u53f0\u5317\u5e02\u5927\u5b89\u5340\u7f85\u65af\u798f\u8def\u4e09\u6bb5283\u5df722\u865f", "addr:housenumber": "22", "addr:postcode": "106", "addr:street": "\u7f85\u65af\u798f\u8def\u4e09\u6bb5283\u5df7", "amenity": "restaurant", "cuisine": "japanese", "name": "\u9ea5\u5b50\u78e8\u9eb5", "phone": "+886-2-23648685", "ref": "20140115 survey", "wheelchair": "limited"}}, {"type": "node", "id": 2624816667, "lat": 25.0272376, "lon": 121.5258268, "tags": {"amenity": "restaurant", "brand": "\u56db\u6d77\u8c46\u6f3f", "name": "\u56db\u6d77\u8c46\u6f3f"}}, {"type": "node", "id": 2632689003, "lat": 25.0418541, "lon": 121.555475, "tags": {"addr:city": "\u53f0\u5317\u5e02", "addr:country": "TW", "addr:district": "\u5927\u5b89\u5340", "addr:housenumber": "30", "addr:postcode": "106", "addr:street": "\u5ef6\u5409\u8857137\u5df7", "amenity": "restaurant", "cuisine": "\u97ed\u83dc\u76d2\u5b50_\u86cb\u9905", "name": "BOX \u5df4\u514b\u65af", "opening_hours": "Mo-Sa 07:00-20:00", "phone": "(02)2711-9925"}}, {"type": "node", "id": 2632691837, "lat": 25.0426203, "lon": 121.5567265, "tags": {"amenity": "restaurant", "cuisine": "steak_house", "name": "\u7d05\u6d0b\u8525\u725b\u6392"}}, {"type": "node", "id": 2633435091, "lat": 25.0397185, "lon": 121.5228093, "tags": {"amenity": "restaurant", "cuisine": "\u6c34\u9903\u3001\u9eb5\u9ede\u3001\u6ef7\u5473", "name": "\u9f8d\u9580\u5ba2\u68e7"}}, {"type": "node", "id": 2633889292, "lat": 25.0158432, "lon": 121.5318899, "tags": {"addr:city": "\u81fa\u5317\u5e02", "addr:country": "TW", "addr:district": "\u4e2d\u6b63\u5340", "addr:housenumber": "12", "addr:postcode": "100", "addr:street": "\u7f85\u65af\u798f\u8def\u4e09\u6bb5286\u5df74\u5f04", "amenity": "restaurant", "disused:name": "\u5e15\u7c73\u723e\u65b0\u7586\u9910\u5ef3", "fax": "+886 2 2367 2471", "name": "\u4e09\u7c73\u4e09\u73fe\u7172\u77f3\u934b\u98ef", "opening_hours": "Tu-Su 11:30-14:30, 17:30-21:30; Mo off", "phone": "+886 2 2367 3707", "toilets:wheelchair": "no", "wheelchair": "no"}}, {"type": "node", "id": 2638283901, "lat": 25.031048, "lon": 121.5611196, "tags": {"addr:city": "\u53f0\u5317\u5e02", "addr:country": "TW", "addr:district": "\u4fe1\u7fa9\u5340", "addr:housenumber": "180", "addr:postcode": "110", "addr:street": "\u838a\u656c\u8def", "amenity": "restaurant", "disused:amenity": "cafe", "name": "\u55d1\u6f22\u5821", "name:en": "Selfish Burger", "name:zh": "\u55d1\u6f22\u5821", "phone": "+886 2 2345 0825", "start_date": "2016", "website": "https://selfishburger.com/"}}, {"type": "node", "id": 2638283929, "lat": 25.0307356, "lon": 121.5614236, "tags": {"amenity": "restaurant", "cuisine": "chinese", "name": "\u541b\u6085\u6392\u9aa8\u98ef"}}, {"type": "node", "id": 2653879920, "lat": 25.0320019, "lon": 121.5292121, "tags": {"addr:city": "\u81fa\u5317\u5e02", "addr:country": "TW", "addr:district": "\u5927\u5b89\u5340", "addr:full": "\u53f0\u5317\u5e02\u6c38\u5eb7\u8857 10 \u5df7 7 \u865f", "addr:housenumber": "7", "addr:postcode": "106", "addr:street": "\u6c38\u5eb7\u885710\u5df7", "amenity": "restaurant", "name": "Rice Cafe\u6753\u6587\u5b57", "phone": "+886-2-23948236", "website": "http://www.facebook.com/ricecafe.tw"}}, {"type": "node", "id": 2653879921, "lat": 25.0319888, "lon": 121.5294333, "tags": {"addr:city": "\u81fa\u5317\u5e02", "addr:country": "TW", "addr:district": "\u5927\u5b89\u5340", "addr:full": "\u53f0\u5317\u5e02\u5927\u5b89\u5340\u6c38\u5eb7\u885710\u5df73\u865f", "addr:housenumber": "3", "addr:postcode": "106", "addr:street": "\u6c38\u5eb7\u885710\u5df7", "amenity": "restaurant", "name": "\u6a02\u9eb5\u5c4b", "phone": "+886-2-2327-8007"}}, {"type": "node", "id": 2657773501, "lat": 25.034186, "lon": 121.531084, "tags": {"addr:city": "\u81fa\u5317\u5e02", "addr:country": "TW", "addr:district": "\u4e2d\u6b63\u5340", "addr:housenumber": "2", "addr:postcode": "10061", "addr:street": "\u4fe1\u7fa9\u8def\u4e8c\u6bb5243\u5df7", "amenity": "restaurant", "cuisine": "chinese", "drive_in": "no", "name": "\u5947\u798f\u6241\u98df", "outdoor_seating": "no", "phone": "+886 2 23222337", "takeaway": "yes", "website": "chi-feu.com"}}, {"type": "node", "id": 2666428755, "lat": 25.0427286, "lon": 121.5476004, "tags": {"addr:city": "\u53f0\u5317\u5e02", "addr:country": "TW", "addr:district": "\u5927\u5b89\u5340", "addr:housenumber": "19", "addr:postcode": "106", "addr:street": "\u6566\u5316\u5357\u8def\u4e00\u6bb5190\u5df7", "alt_name": "\u9ea5\u8a18\u98ef\u5802", "amenity": "restaurant", "branch": "\u6566\u5357\u5206\u5e97", "cuisine": "chinese", "drive_in": "no", "name": "\u9999\u6e2f\u8336\u6c34\u6524", "outdoor_seating": "no", "phone": "+886 2 2778 6466", "takeaway": "yes", "website": "http://www.\u8336\u6c34\u6524.tw"}}, {"type": "node", "id": 2671520187, "lat": 25.0436986, "lon": 121.5492692, "tags": {"addr:city": "\u53f0\u5317\u5e02", "addr:country": "TW", "addr:district": "\u5927\u5b89\u5340", "addr:housenumber": "155", "addr:postcode": "106", "addr:street": "\u6566\u5316\u5357\u8def\u4e00\u6bb5", "amenity": "restaurant", "capacity": "20", "cuisine": "pizza", "name": "Cosi o Cosi Trattoria Italiana", "opening_hours": "12:00-14:30; 18:00-23:00", "payment:credit_cards": "yes", "phone": "+886-2-2771-5883"}}, {"type": "node", "id": 2672730342, "lat": 25.0184157, "lon": 121.5315221, "tags": {"addr:city": "\u53f0\u5317\u5e02", "addr:country": "TW", "addr:district": "\u5927\u5b89\u5340", "addr:housenumber": "2", "addr:postcode": "106", "addr:street": "\u7f85\u65af\u798f\u8def\u4e09\u6bb5283\u5df77\u5f04", "amenity": "restaurant", "cuisine": "\u98ef\u9eb5", "name": "\u8836\u5c45", "wheelchair": "no"}}, {"type": "node", "id": 2676878121, "lat": 25.0427281, "lon": 121.547721, "tags": {"addr:city": "\u53f0\u5317\u5e02", "addr:country": "TW", "addr:district": "\u5927\u5b89\u5340", "addr:housenumber": "21", "addr:postcode": "106", "addr:street": "\u6566\u5316\u5357\u8def\u4e00\u6bb5190\u5df7", "amenity": "restaurant", "name": "\u5c71\u897f\u5200\u524a\u9eb5"}}, {"type": "node", "id": 2679987478, "lat": 25.02252, "lon": 121.5263964, "tags": {"addr:city": "\u81fa\u5317\u5e02", "addr:country": "TW", "addr:district": "\u5927\u5b89\u5340", "addr:housenumber": "95", "addr:postcode": "106", "addr:street": "\u7f85\u65af\u798f\u8def\u4e09\u6bb5", "amenity": "restaurant", "cuisine": "asian", "name": "\u9322\u90fd\u5237\u5237\u934b", "wheelchair": "yes"}}, {"type": "node", "id": 2688164745, "lat": 25.0139904, "lon": 121.5304333, "tags": {"addr:city": "\u53f0\u5317\u5e02", "addr:country": "TW", "addr:district": "\u4e2d\u6b63\u5340", "addr:floor": "2", "addr:full": "\u53f0\u5317\u5e02\u4e2d\u6b63\u5340\u601d\u6e90\u885716\u865f2\u6a13", "addr:housenumber": "16", "addr:postcode": "100", "addr:street": "\u601d\u6e90\u8857", "amenity": "restaurant", "level": "2", "name": "\u6c34\u6e90\u6703\u9928", "phone": "+886-2 2369 4999", "toilets:wheelchair": "yes", "website": "https://www.lamaree.com.tw/", "wheelchair": "yes"}}, {"type": "node", "id": 2690921407, "lat": 25.0402489, "lon": 121.5346885, "tags": {"addr:city": "\u81fa\u5317\u5e02", "addr:country": "TW", "addr:district": "\u5927\u5b89\u5340", "addr:housenumber": "25", "addr:postcode": "106", "addr:street": "\u6fdf\u5357\u8def\u4e09\u6bb5", "amenity": "restaurant", "name": "\u4e39\u5824"}}, {"type": "node", "id": 2690924194, "lat": 25.0296947, "lon": 121.5218948, "tags": {"amenity": "restaurant", "cuisine": "\u58fd\u559c\u71d2", "name": "\u92e4\u71d2\u934b\u7269\u6599\u7406", "wheelchair": "no"}}, {"type": "node", "id": 2698212020, "lat": 25.0262637, "lon": 121.5282201, "tags": {"amenity": "restaurant", "cuisine": "regional", "name": "\u6a02\u667a\u6a13\u5ee3\u5834"}}, {"type": "node", "id": 2718780533, "lat": 25.0334657, "lon": 121.5645173, "tags": {"amenity": "restaurant", "brand": "\u9f0e\u6cf0\u8c50", "level": "-1", "name": "\u9f0e\u6cf0\u8c50", "name:en": "Din Tai Fung", "name:ja": "\u9f0e\u6cf0\u8c4a", "name:zh": "\u9f0e\u6cf0\u8c50"}}, {"type": "node", "id": 2730242990, "lat": 25.0399967, "lon": 121.5534569, "tags": {"addr:city": "\u81fa\u5317\u5e02", "addr:country": "TW", "addr:district": "\u5927\u5b89\u5340", "addr:housenumber": "3", "addr:postcode": "106", "addr:street": "\u5fe0\u5b5d\u6771\u8def\u56db\u6bb5216\u5df727\u5f04", "amenity": "restaurant", "branch": "\u5fe0\u5b5d\u5e97", "cuisine": "japanese", "diet:vegan": "yes", "diet:vegetarian": "yes", "name": "\u7a57\u79d1\u624b\u6253\u70cf\u9f8d\u9eb5", "name:en": "Hoshina Udon", "name:zh": "\u7a57\u79d1\u624b\u6253\u70cf\u9f8d\u9eb5", "phone": "+886 2 2778 3737"}}, {"type": "node", "id": 2734160945, "lat": 25.0437928, "lon": 121.5226346, "tags": {"addr:city": "\u81fa\u5317\u5e02", "addr:country": "TW", "addr:district": "\u4e2d\u6b63\u5340", "addr:housenumber": "7-4", "addr:postcode": "100", "addr:street": "\u9752\u5cf6\u6771\u8def", "amenity": "restaurant", "diet:vegan": "yes", "diet:vegetarian": "only", "name": "\u84ee\u6c60\u6703\u7d20\u98df\u9928", "phone": "+886 2 2341 3861"}}, {"type": "node", "id": 2734238227, "lat": 25.0435147, "lon": 121.5249155, "tags": {"addr:city": "\u81fa\u5317\u5e02", "addr:country": "TW", "addr:district": "\u4e2d\u6b63\u5340", "addr:housenumber": "5-3", "addr:postcode": "100", "addr:street": "\u7d39\u8208\u5357\u8857", "amenity": "restaurant", "brand": "\u6c38\u548c\u8c46\u6f3f", "brand:en": "Yonghe Soy Milk", "brand:wikidata": "Q11131335", "brand:wikipedia": "zh:\u6c38\u548c\u8c46\u6f3f", "cuisine": "chinese;breakfast", "name": "\u6c38\u548c\u8c46\u6f3f", "name:en": "Yonghe Soy Milk", "name:zh": "\u6c38\u548c\u8c46\u6f3f", "opening_hours": "24/7"}}, {"type": "node", "id": 2747611279, "lat": 25.0426574, "lon": 121.5225442, "tags": {"amenity": "restaurant", "name": "\u4f73\u5473\u9bae"}}, {"type": "node", "id": 2747611400, "lat": 25.0403553, "lon": 121.5243343}, {"type": "node", "id": 2747611404, "lat": 25.0402433, "lon": 121.5241395}, {"type": "node", "id": 2747611406, "lat": 25.0401606, "lon": 121.5245087}, {"type": "node", "id": 2747611410, "lat": 25.0403073, "lon": 121.5245488}, {"type": "node", "id": 2751198269, "lat": 25.0443688, "lon": 121.5230646, "tags": {"addr:street": "\u6797\u68ee\u5357\u8def", "amenity": "restaurant", "name": "\u7f8e\u800c\u7f8e"}}, {"type": "node", "id": 2751198276, "lat": 25.0442672, "lon": 121.5230519, "tags": {"addr:city": "\u81fa\u5317\u5e02", "addr:country": "TW", "addr:district": "\u4e2d\u6b63\u5340", "addr:housenumber": "2\u4e4b2", "addr:postcode": "100", "addr:street": "\u6797\u68ee\u5357\u8def", "amenity": "restaurant", "name": "\u9ebb\u8fa3\u7d05\u6cb9\u7092\u624b"}}, {"type": "node", "id": 2751198277, "lat": 25.0441118, "lon": 121.5230244, "tags": {"addr:city": "\u81fa\u5317\u5e02", "addr:country": "TW", "addr:district": "\u4e2d\u6b63\u5340", "addr:housenumber": "4", "addr:postcode": "100", "addr:street": "\u6797\u68ee\u5357\u8def", "amenity": "restaurant", "name": "\u5317\u5e73\u4e0a\u5712\u6a13"}}, {"type": "node", "id": 2751198278, "lat": 25.0439754, "lon": 121.5229888, "tags": {"addr:street": "\u6797\u68ee\u5357\u8def", "amenity": "restaurant", "name": "\u98df\u5168\u6c60\u4e0a\u4fbf\u7576"}}, {"type": "node", "id": 2751198279, "lat": 25.0438753, "lon": 121.5229488, "tags": {"addr:city": "\u81fa\u5317\u5e02", "addr:country": "TW", "addr:district": "\u4e2d\u6b63\u5340", "addr:housenumber": "4\u4e4b2", "addr:postcode": "100", "addr:street": "\u6797\u68ee\u5357\u8def", "amenity": "restaurant", "name": "\u6241\u98df\u64b0"}}, {"type": "node", "id": 2751198281, "lat": 25.0437922, "lon": 121.5227862, "tags": {"addr:city": "\u81fa\u5317\u5e02", "addr:country": "TW", "addr:district": "\u4e2d\u6b63\u5340", "addr:housenumber": "9", "addr:postcode": "100", "addr:street": "\u9752\u5cf6\u6771\u8def", "amenity": "restaurant", "cuisine": "beef_noodle", "name": "\u7687\u5bb6\u725b\u8089\u9eb5"}}, {"type": "node", "id": 2751198282, "lat": 25.0439047, "lon": 121.5223832, "tags": {"addr:street": "\u9752\u5cf6\u6771\u8def", "amenity": "restaurant", "cuisine": "noodle", "name": "\u57fa\u9686\u9eb5\u98df\u9928"}}, {"type": "node", "id": 2755468892, "lat": 25.0404654, "lon": 121.5242001}, {"type": "node", "id": 2755468893, "lat": 25.0404307, "lon": 121.5243549}, {"type": "node", "id": 2755478333, "lat": 25.0398398, "lon": 121.5222619, "tags": {"amenity": "restaurant", "brand": "\u516b\u65b9\u96f2\u96c6", "brand:en": "Eight Way", "brand:wikidata": "Q28417381", "brand:wikipedia": "zh:\u516b\u65b9\u96f2\u96c6", "brand:zh": "\u516b\u65b9\u96f2\u96c6", "name": "\u516b\u65b9\u96f2\u96c6", "name:en": "Eight Way", "name:zh": "\u516b\u65b9\u96f2\u96c6"}}, {"type": "node", "id": 2755478334, "lat": 25.0398334, "lon": 121.522311, "tags": {"amenity": "restaurant", "name": "\u4e09\u79be\u7c73\u7c89\u6e6f", "opening_hours": "Tu-Su 06:30-15:00"}}, {"type": "node", "id": 2755478335, "lat": 25.0398186, "lon": 121.5223623, "tags": {"amenity": "restaurant", "name": "\u85cd\u9999"}}, {"type": "node", "id": 2755478336, "lat": 25.039805, "lon": 121.5224397, "tags": {"amenity": "restaurant", "name": "\u5bb6\u5e38\u9eb5"}}, {"type": "node", "id": 2755478337, "lat": 25.0397904, "lon": 121.5225186, "tags": {"addr:city": "\u81fa\u5317\u5e02", "addr:country": "TW", "addr:district": "\u4e2d\u6b63\u5340", "addr:floor": "1", "addr:housenumber": "9", "addr:postcode": "100", "addr:street": "\u6797\u68ee\u5357\u8def61\u5df7", "amenity": "restaurant", "cuisine": "chinese", "description": "\u7802\u934b\u4e3b\u984c\u9910\u5ef3", "level": "1", "name": "\u53f0\u5317\u7f8e\u5473\u5c0f\u9928", "opening_hours": "11:30-14:00; 17:30-21:00", "wheelchair": "yes"}}, {"type": "node", "id": 2755478338, "lat": 25.0397405, "lon": 121.5227012, "tags": {"addr:city": "\u81fa\u5317\u5e02", "addr:country": "TW", "addr:district": "\u4e2d\u6b63\u5340", "addr:housenumber": "13", "addr:postcode": "100", "addr:street": "\u6797\u68ee\u5357\u8def61\u5df7", "amenity": "restaurant", "capacity": "36", "cuisine": "chinese", "description": "\u7d05\u71d2\u725b \u7576\u6b78\u7f8a \u5357\u6d0b\u8089\u9aa8\u8336", "name": "\u9eb5\u6a02\u4ead", "outdoor_seating": "no", "phone": "+886-2-2321-5067", "smoking": "no", "takeaway": "yes", "wheelchair": "no"}}, {"type": "node", "id": 2755478339, "lat": 25.0397682, "lon": 121.5225956, "tags": {"amenity": "restaurant", "name": "\u70e4\u8089\u98ef"}}, {"type": "node", "id": 2755478344, "lat": 25.0396813, "lon": 121.5223469, "tags": {"amenity": "restaurant", "name": "\u5927\u4f73\u6ef7\u8089\u98ef"}}, {"type": "node", "id": 2755478345, "lat": 25.0396673, "lon": 121.5223993, "tags": {"amenity": "restaurant", "name": "107\u8525\u6293\u9905"}}, {"type": "node", "id": 2755478346, "lat": 25.03959, "lon": 121.522346, "tags": {"amenity": "restaurant", "name": "\u937e\u570b\u96f2\u541e\u6599\u7406"}}, {"type": "node", "id": 2755478347, "lat": 25.0396966, "lon": 121.5222899, "tags": {"amenity": "restaurant", "name": "\u6d77\u5357\u96de\u98ef"}}, {"type": "node", "id": 2755478348, "lat": 25.0398502, "lon": 121.5221929, "tags": {"amenity": "restaurant", "name": "\u824b\u823a\u4ed9\u8349"}}, {"type": "node", "id": 2755478349, "lat": 25.0395669, "lon": 121.52354, "tags": {"amenity": "restaurant", "name": "\u5efa\u5317\u9ed1\u7cd6\u5228\u51b0"}}, {"type": "node", "id": 2755478350, "lat": 25.0394398, "lon": 121.5234738, "tags": {"amenity": "restaurant", "cuisine": "japanese", "name": "\u6e05\u6d77\u65e5\u5f0f"}}, {"type": "node", "id": 2755478351, "lat": 25.0394495, "lon": 121.5234331, "tags": {"amenity": "restaurant", "name": "\u5df4\u9ece\u5c0f\u93ae"}}, {"type": "node", "id": 2755478352, "lat": 25.0434365, "lon": 121.5240514, "tags": {"amenity": "restaurant", "name": "\u5927\u9ea5\u7f8e\u800c\u7f8e"}}, {"type": "node", "id": 2755478353, "lat": 25.0434157, "lon": 121.5241771, "tags": {"amenity": "restaurant", "name": "\u4f55\u5bb6\u5927\u7897\u516c\u6dbc\u9eb5"}}, {"type": "node", "id": 2755478355, "lat": 25.0433756, "lon": 121.5243098, "tags": {"amenity": "restaurant", "name": "\u597d\u5403\u96de\u8089\u98ef"}}, {"type": "node", "id": 2755478357, "lat": 25.0433075, "lon": 121.5245186, "tags": {"amenity": "restaurant", "name": "\u65e9\u5b89\u65e9\u9ede"}}, {"type": "node", "id": 2755478360, "lat": 25.0433059, "lon": 121.5245425, "tags": {"amenity": "restaurant"}}, {"type": "node", "id": 2755478361, "lat": 25.043631, "lon": 121.5247731, "tags": {"amenity": "restaurant"}}, {"type": "node", "id": 2755478362, "lat": 25.0436078, "lon": 121.5247672, "tags": {"amenity": "restaurant"}}, {"type": "node", "id": 2755478363, "lat": 25.0435686, "lon": 121.5247567, "tags": {"amenity": "restaurant"}}, {"type": "node", "id": 2755478364, "lat": 25.0435274, "lon": 121.5247462, "tags": {"amenity": "restaurant"}}, {"type": "node", "id": 2755478365, "lat": 25.0434702, "lon": 121.5247287, "tags": {"amenity": "restaurant"}}, {"type": "node", "id": 2755478366, "lat": 25.0435686, "lon": 121.524933, "tags": {"amenity": "restaurant", "name": "\u548c\u5712"}}, {"type": "node", "id": 2755478367, "lat": 25.0434734, "lon": 121.5249026, "tags": {"amenity": "restaurant", "cuisine": "beef_noodle", "name": "\u8001\u9ec3\u725b\u8089\u9eb5"}}, {"type": "node", "id": 2755478369, "lat": 25.0432026, "lon": 121.5250147, "tags": {"amenity": "restaurant", "name": "\u798f\u5dde\u4e7e\u62cc\u9eb5", "official_name": "\u83ab\u540d\u798f\u5dde\u4e7e\u62cc\u9eb5\u83ef\u5c71\u5e97", "phone": "+886-2-2394-9788"}}, {"type": "node", "id": 2760755543, "lat": 25.0424635, "lon": 121.5305256, "tags": {"amenity": "restaurant", "name": "\u967d\u6625\u9eb5", "wheelchair": "no"}}, {"type": "node", "id": 2775768374, "lat": 25.0284015, "lon": 121.5570462, "tags": {"amenity": "restaurant", "name": "\u767e\u516b\u6f01\u5834"}}, {"type": "node", "id": 2776684641, "lat": 25.0427865, "lon": 121.5303698, "tags": {"amenity": "restaurant", "cuisine": "beef_noodle", "name": "\u6b63\u5b97\u539f\u6c41\u725b\u8089\u9eb5"}}, {"type": "node", "id": 2787383726, "lat": 25.041725, "lon": 121.5506267, "tags": {"amenity": "restaurant", "cuisine": "japanese", "name": "\u725b\u89d2\u65e5\u672c\u71d2\u8089\u5c08\u9580\u5e97"}}, {"type": "node", "id": 2787383729, "lat": 25.041725, "lon": 121.5505317, "tags": {"amenity": "restaurant", "cuisine": "japanese", "name": "\u6eab\u91ce\u83dc\u65e5\u672c\u6dae\u6dae\u934b\u5c08\u9580\u5e97"}}, {"type": "node", "id": 2787426162, "lat": 25.0404495, "lon": 121.5506387, "tags": {"amenity": "restaurant", "name": "\u674e\u8a18\u96de\u6392\u5c08\u8ce3\u5e97"}}, {"type": "node", "id": 2787426169, "lat": 25.0404649, "lon": 121.5504199, "tags": {"amenity": "restaurant", "name": "\u7fa9\u9eb5\u574a"}}, {"type": "node", "id": 2787426172, "lat": 25.0404656, "lon": 121.5500873, "tags": {"addr:city": "\u81fa\u5317\u5e02", "addr:country": "TW", "addr:district": "\u5927\u5b89\u5340", "addr:housenumber": "9", "addr:postcode": "106", "addr:street": "\u6566\u5316\u5357\u8def\u4e00\u6bb5233\u5df7", "amenity": "restaurant", "name": "\u6d93\u8c46\u8150"}}, {"type": "node", "id": 2787574032, "lat": 25.0397659, "lon": 121.5538439, "tags": {"addr:city": "\u81fa\u5317\u5e02", "addr:country": "TW", "addr:district": "\u5927\u5b89\u5340", "addr:housenumber": "14", "addr:postcode": "106", "addr:street": "\u5fe0\u5b5d\u6771\u8def\u56db\u6bb5216\u5df727\u5f04", "amenity": "restaurant", "cuisine": "ramen", "name": "\u9df9\u6d41\u62c9\u9eb5 \u53f0\u7063\u672c\u5e97", "name:ja": "\u9df9\u6d41 \u53f0\u6e7e\u672c\u5e97", "name:zh": "\u9df9\u6d41\u62c9\u9eb5 \u53f0\u7063\u672c\u5e97", "opening_hours": "Mo-Sa 11:30-22:00, Su 11:30-21:00", "outdoor_seating": "no", "phone": "+886 2 2778-1177", "smoking": "no", "website": "https://www.facebook.com/539539226074338/"}}, {"type": "node", "id": 2794308855, "lat": 25.04237, "lon": 121.5417827, "tags": {"amenity": "restaurant", "diet:vegan": "yes", "diet:vegetarian": "only", "name": "\u7d20\u98df"}}, {"type": "node", "id": 2804449464, "lat": 25.0420499, "lon": 121.5564468, "tags": {"addr:city": "\u81fa\u5317\u5e02", "addr:country": "TW", "addr:district": "\u5927\u5b89\u5340", "addr:housenumber": "26", "addr:postcode": "106", "addr:street": "\u5149\u5fa9\u5357\u8def200\u5df7", "amenity": "restaurant", "diet:vegan": "yes", "diet:vegetarian": "only", "name": "Health\u967d\u5149\u82b1\u5712\u7d20\u98df\u4e3b\u7fa9", "phone": "+886 2 2773 7375"}}, {"type": "node", "id": 2812986184, "lat": 25.0434395, "lon": 121.5466164, "tags": {"addr:city": "\u81fa\u5317\u5e02", "addr:country": "TW", "addr:district": "\u5927\u5b89\u5340", "addr:housenumber": "58", "addr:postcode": "106", "addr:street": "\u6566\u5316\u5357\u8def\u4e00\u6bb5160\u5df7", "amenity": "restaurant", "diet:vegan": "yes", "diet:vegetarian": "yes", "name": "\u82e5\u8377\u852c\u98df\u6642\u5c1a\u9910\u5ef3", "phone": "+886 2 2752 0838"}}, {"type": "node", "id": 2813030301, "lat": 25.023684, "lon": 121.5430126, "tags": {"addr:city": "\u53f0\u5317\u5e02", "addr:country": "TW", "addr:district": "\u5927\u5b89\u5340", "addr:housenumber": "5", "addr:postcode": "106", "addr:street": "\u5fa9\u8208\u5357\u8def\u4e8c\u6bb5308\u5df7", "amenity": "restaurant", "cuisine": "italian", "diet:vegan": "yes", "diet:vegetarian": "only", "name": "\u5361\u5e1b\u5496\u5561\u7d20\u98df\u70d8\u7119\u574a\uff0e\u7fa9\u5f0f\u5eda\u623f", "phone": "+886 2 2733 6819", "website": "http://www.kapok-vege.com.tw/", "wheelchair": "yes"}}, {"type": "node", "id": 2826002442, "lat": 25.0336473, "lon": 121.5387809, "tags": {"amenity": "restaurant", "cuisine": "chinese", "name": "\u91cd\u6176\u6284\u624b", "takeaway": "yes", "toilets:wheelchair": "no", "wheelchair": "yes"}}, {"type": "node", "id": 2832950208, "lat": 25.0199492, "lon": 121.5318566, "tags": {"amenity": "restaurant", "name": "\u8499\u5a1c\u5bb6\u5eda", "wheelchair": "no"}}, {"type": "node", "id": 2837820262, "lat": 25.0123617, "lon": 121.5355328, "tags": {"addr:city": "\u53f0\u5317\u5e02", "addr:country": "TW", "addr:district": "\u4e2d\u6b63\u5340", "addr:full": "\u53f0\u5317\u5e02\u6c40\u5dde\u8def\u4e09\u6bb5279\u865f", "addr:housenumber": "279", "addr:postcode": "100", "addr:street": "\u6c40\u5dde\u8def\u4e09\u6bb5", "amenity": "restaurant", "name": "\u7dad\u502b\u9eb5\u5e97", "phone": "+886-2-23682634", "wheelchair": "no"}}, {"type": "node", "id": 2837820263, "lat": 25.0123135, "lon": 121.5355568, "tags": {"addr:city": "\u53f0\u5317\u5e02", "addr:country": "TW", "addr:district": "\u4e2d\u6b63\u5340", "addr:full": "100\u53f0\u5317\u5e02\u4e2d\u6b63\u5340\u6c40\u5dde\u8def\u4e09\u6bb5281\u865f", "addr:housenumber": "281", "addr:postcode": "100", "addr:street": "\u6c40\u5dde\u8def\u4e09\u6bb5", "amenity": "restaurant", "name": "\u9806\u5712\u5c0f\u9928", "opening_hours": "Mo-Fr 11:00-14:00, 16:30-21:00;Sa-Su 11:00-14:30,16:30-21:00", "phone": "+886-2 2368 7432", "toilets:wheelchair": "no", "wheelchair": "no"}}, {"type": "node", "id": 2837820264, "lat": 25.0122683, "lon": 121.5355879, "tags": {"addr:city": "\u53f0\u5317\u5e02", "addr:country": "TW", "addr:district": "\u4e2d\u6b63\u5340", "addr:full": "100\u53f0\u5317\u5e02\u4e2d\u6b63\u5340\u6c40\u5dde\u8def\u4e09\u6bb5283\u865f", "addr:housenumber": "283", "addr:postcode": "100", "addr:street": "\u6c40\u5dde\u8def\u4e09\u6bb5", "amenity": "restaurant", "branch": "\u516c\u9928\u5e97", "cuisine": "hotpot", "disused:amenity": "restaurant", "disused:name": "\u5bae\u7dba\u706b\u934b", "name": "\u58f9\u68ee\u6cf0\u98df\u5802", "opening_hours": "Mo-Th, Su 11:30-23:00; Fr, Sa 11:30-23:30", "phone": "+886 2 3365 3399;+886 0931 999 348", "toilets:wheelchair": "no", "wheelchair": "no"}}, {"type": "node", "id": 2861307508, "lat": 25.0442057, "lon": 121.5247742, "tags": {"addr:city": "\u81fa\u5317\u5e02", "addr:country": "TW", "addr:district": "\u4e2d\u6b63\u5340", "addr:housenumber": "108", "addr:postcode": "100", "addr:street": "\u5fe0\u5b5d\u6771\u8def\u4e00\u6bb5", "amenity": "restaurant", "cuisine": "breakfast;regional;local;chinese", "level": "2", "name": "\u961c\u676d\u8c46\u6f3f", "name:en": "Fuhang Soy Milk Breakfast", "name:ja": "\u961c\u5751\u8c46\u6f3f", "name:ko": "\ud478\ud56d\ub610\uc6b0\uc7a5", "name:zh": "\u961c\u676d\u8c46\u6f3f", "opening_hours": "Mo-Su 05:30-12:00", "wheelchair": "no"}}, {"type": "node", "id": 2886368748, "lat": 25.0382267, "lon": 121.5498165, "tags": {"addr:city": "\u53f0\u5317\u5e02", "addr:country": "TW", "addr:district": "\u5927\u5b89\u5340", "addr:full": "\u53f0\u5317\u5e02\u5927\u5b89\u5340\u4ec1\u611b\u8def\u56db\u6bb5109\u865f", "addr:housenumber": "109", "addr:postcode": "106", "addr:street": "\u4ec1\u611b\u8def\u56db\u6bb5", "amenity": "restaurant", "disused:amenity": "restaurant", "disused:name": "\u53cc\u8056", "name": "\u9ea5\u7b1b\u6606 BBQ", "name:en": "Mighty Quinn's Barbeque Taiwan", "name:zh": "\u9ea5\u7b1b\u6606 BBQ", "opening_hours": "Mo-Su 11:30-23:00", "phone": "+886 2 2772 6174", "website": "http://www.mightyquinnsbbq.com.tw"}}, {"type": "node", "id": 2898365320, "lat": 25.0352407, "lon": 121.5605666, "tags": {"addr:city": "\u53f0\u5317\u5e02", "addr:country": "TW", "addr:district": "\u4fe1\u7fa9\u5340", "addr:housenumber": "370", "addr:postcode": "110", "addr:street": "\u57fa\u9686\u8def\u4e00\u6bb5", "amenity": "restaurant", "cuisine": "beef_noodle", "name": "\u5b58\u9999\u725b\u8089\u9eb5", "phone": "0227252331", "wheelchair": "limited"}}, {"type": "node", "id": 2917441620, "lat": 25.0217757, "lon": 121.5432024, "tags": {"amenity": "restaurant", "name": "\u6cf0\u5c71\u5305\u5b50"}}, {"type": "node", "id": 2917693023, "lat": 25.0226168, "lon": 121.5426344, "tags": {"amenity": "restaurant", "brand": "\u516b\u65b9\u96f2\u96c6", "disused:name": "\u516b\u65b9\u96f2\u96c6\u6c34\u9903\u5e97", "name": "\u56db\u9762\u516b\u65b9\u6c34\u9903\u5e97"}}, {"type": "node", "id": 2923721936, "lat": 25.0160589, "lon": 121.5508685, "tags": {"addr:city": "\u81fa\u5317\u5e02", "addr:country": "TW", "addr:district": "\u5927\u5b89\u5340", "addr:housenumber": "223", "addr:postcode": "106", "addr:street": "\u8f9b\u4ea5\u8def\u4e09\u6bb5", "amenity": "restaurant", "diet:vegan": "yes", "diet:vegetarian": "only", "internet_access": "wlan", "name": "\u754c\u8f49\u647a\u4eba\u6587\u6703\u6240", "opening_hours": "24/7", "phone": "+886 2 2377 1898", "website": "https://www.facebook.com/Transition23772098"}}, {"type": "node", "id": 2923728376, "lat": 25.0256891, "lon": 121.5226636, "tags": {"addr:city": "\u81fa\u5317\u5e02", "addr:country": "TW", "addr:district": "\u4e2d\u6b63\u5340", "addr:housenumber": "163", "addr:postcode": "10084", "addr:street": "\u5357\u660c\u8def\u4e8c\u6bb5", "amenity": "restaurant", "cuisine": "chinese", "diet:vegan": "yes", "diet:vegetarian": "only", "name": "\u6cd3\u5f97\u7d20\u98df\u5e97", "name:en": "Deep Vegetarian Vegan Restaurant", "name:zh": "\u6cd3\u5f97\u7d20\u98df\u5e97", "opening_hours": "11:00-21:00", "phone": "+886 2 2367 2320", "toilets:wheelchair": "no", "wheelchair": "yes"}}, {"type": "node", "id": 2923732898, "lat": 25.0411676, "lon": 121.5521555, "tags": {"addr:city": "\u53f0\u5317\u5e02", "addr:country": "TW", "addr:district": "\u5927\u5b89\u5340", "addr:housenumber": "200", "addr:postcode": "106", "addr:street": "\u5fe0\u5b5d\u6771\u8def\u56db\u6bb5", "amenity": "restaurant", "diet:vegan": "yes", "diet:vegetarian": "only", "level": "12", "name": "\u679c\u7136\u532f", "opening_hours": "Mo-Fr 11:30-15:00;Mo-Fr17:30-21:30;Sa-Su PH 11:30-14:00;Sa-Su PH 14:20-16:20;Sa-Su PH 17:30-21:00", "phone": "+886 2 2771 8832", "website": "https://www.facebook.com/www.fruitfulfood.com.tw"}}, {"type": "node", "id": 2923759173, "lat": 25.0198512, "lon": 121.5316755, "tags": {"addr:city": "\u81fa\u5317\u5e02", "addr:country": "TW", "addr:district": "\u5927\u5b89\u5340", "addr:housenumber": "21", "addr:postcode": "10647", "addr:street": "\u7f85\u65af\u798f\u8def\u4e09\u6bb5283\u5df7", "amenity": "restaurant", "cuisine": "chinese;vegetarian", "diet:vegan": "yes", "diet:vegetarian": "yes", "disused:amenity": "restaurant", "disused:name": "\u7da0\u852c", "name": "\u7d20\u5fb7\u852c\u98df", "wheelchair": "no"}}, {"type": "node", "id": 2935820265, "lat": 25.0222651, "lon": 121.5435572, "tags": {"addr:city": "\u81fa\u5317\u5e02", "addr:country": "TW", "addr:district": "\u5927\u5b89\u5340", "addr:housenumber": "379", "addr:postcode": "106", "addr:street": "\u5fa9\u8208\u5357\u8def\u4e8c\u6bb5", "amenity": "restaurant", "capacity": "30", "cuisine": "pizza", "delivery": "yes", "level": "1", "name": "\u829d\u52a0\u54e5\u6bd4\u85a9", "name:en": "Chicago Pizza", "name:ja": "\u30b7\u30ab\u30b4\u30d4\u30b6", "name:zh": "\u829d\u52a0\u54e5\u6bd4\u85a9", "opening_hours": "11:00~20:00", "phone": "+886-2-27072121", "smoking": "no", "takeaway": "yes"}}, {"type": "node", "id": 2946896598, "lat": 25.0197387, "lon": 121.5327913, "tags": {"addr:city": "\u81fa\u5317\u5e02", "addr:country": "TW", "addr:district": "\u5927\u5b89\u5340", "addr:housenumber": "72", "addr:postcode": "106", "addr:street": "\u6eab\u5dde\u8857", "amenity": "restaurant", "disused:amenity": "restaurant", "disused:name": "\u6625\u82b1\u5fae\u7b11", "name": "\u67d2\u98df\u8cb3\u9910\u5ef3", "smoking": "no", "takeaway": "yes", "toilets:wheelchair": "no", "wheelchair": "yes"}}, {"type": "node", "id": 2946903804, "lat": 25.0196832, "lon": 121.5319567, "tags": {"amenity": "restaurant", "cuisine": "vegetarian;chinese", "name": "\u963f\u82f1\u9910\u5ef3", "toilets:wheelchair": "no", "wheelchair": "limited"}}, {"type": "node", "id": 2952382788, "lat": 25.0423476, "lon": 121.5305019, "tags": {"amenity": "restaurant", "name": "\u99a5\u5712", "wheelchair": "no"}}, {"type": "node", "id": 2952382790, "lat": 25.0401101, "lon": 121.5310558, "tags": {"addr:city": "\u81fa\u5317\u5e02", "addr:country": "TW", "addr:district": "\u4e2d\u6b63\u5340", "addr:full": "\u81fa\u5317\u5e02\u6fdf\u5357\u8def\u4e8c\u6bb548\u5df73\u865f", "addr:housenumber": "3", "addr:postcode": "100", "addr:street": "\u6fdf\u5357\u8def\u4e8c\u6bb548\u5df7", "amenity": "restaurant", "branch": "\u6fdf\u5357\u5e97", "capacity": "25", "cuisine": "\u53f0\u7063", "name": "\u79ae\u9eb5\u4f5c", "outdoor_seating": "no", "smoking": "no", "takeaway": "yes"}}, {"type": "node", "id": 2952382791, "lat": 25.0400653, "lon": 121.5310439, "tags": {"amenity": "restaurant", "cuisine": "pizza", "name": "Kiss Pizza"}}, {"type": "node", "id": 2952428221, "lat": 25.0429958, "lon": 121.5293758, "tags": {"amenity": "restaurant", "name": "\u7f8a\u6210\u5c0f\u9928", "toilets:wheelchair": "no", "wheelchair": "yes"}}, {"type": "node", "id": 2962738781, "lat": 25.0245612, "lon": 121.543597, "tags": {"amenity": "restaurant", "brand": "\u5927\u57d4\u9435\u677f\u71d2", "cuisine": "teppanyaki", "name": "\u5927\u57d4\u9435\u677f\u71d2", "toilets:wheelchair": "no", "wheelchair": "limited", "wheelchair:description": "\u5165\u53e3\u9032\u7684\u53bb \u4f46\u662f\u5916\u9762\u6709\u6e6f\u934b \u53ea\u80fd\u5750\u5916\u9762"}}, {"type": "node", "id": 2964007348, "lat": 25.0265154, "lon": 121.5546844, "tags": {"amenity": "restaurant", "name": "hot7 \u65b0\u9435\u677f\u6599\u7406 \u53f0\u5317\u57fa\u9686\u8def\u5e97", "website": "http://www.hot-7.com/"}}, {"type": "node", "id": 2969057137, "lat": 25.038714, "lon": 121.5254377, "tags": {"addr:city": "\u81fa\u5317\u5e02", "addr:country": "TW", "addr:district": "\u4e2d\u6b63\u5340", "addr:housenumber": "97", "addr:postcode": "100", "addr:street": "\u676d\u5dde\u5357\u8def\u4e00\u6bb5", "amenity": "restaurant", "cuisine": "beef_noodle", "name": "\u5fb7\u5fde\u725b\u8089\u9eb5"}}, {"type": "node", "id": 2987200084, "lat": 25.0425576, "lon": 121.565523, "tags": {"amenity": "restaurant", "cuisine": "teppanyaki", "name": "\u6cd5\u6735\u65b0\u99ac\u5fb7\u91cc\u9435\u677f\u71d2"}}, {"type": "node", "id": 2989500487, "lat": 25.0421322, "lon": 121.5434895, "tags": {"amenity": "restaurant", "name": "\u99ac\u8fa3"}}, {"type": "node", "id": 3008812245, "lat": 25.0120446, "lon": 121.5357802, "tags": {"addr:city": "\u53f0\u5317\u5e02", "addr:country": "TW", "addr:district": "\u4e2d\u6b63\u5340", "addr:floor": "2", "addr:full": "\u53f0\u5317\u5e02\u4e2d\u6b63\u5340\u6c40\u5dde\u8def\u4e09\u6bb5293\u865f2\u6a13", "addr:housenumber": "293", "addr:postcode": "100", "addr:street": "\u6c40\u5dde\u8def\u4e09\u6bb5", "amenity": "restaurant", "cuisine": "burger", "internet_access": "wlan", "internet_access:fee": "no", "internet_access:ssid": "L.A.F. Burger", "layer": "1", "level": "2", "name": "\u62c9\u8299\u6f22\u5821", "name:en": "L.A.F. Burger", "name:zh": "\u62c9\u8299\u6f22\u5821", "phone": "+886-2-2362-1092", "toilets:wheelchair": "no", "wheelchair": "no", "wheelchair:description": "\u96fb\u68af\u4e0d\u901a"}}, {"type": "node", "id": 3008812246, "lat": 25.0120181, "lon": 121.5357412, "tags": {"addr:city": "\u81fa\u5317\u5e02", "addr:country": "TW", "addr:district": "\u4e2d\u6b63\u5340", "addr:housenumber": "293", "addr:postcode": "100", "addr:street": "\u6c40\u5dde\u8def\u4e09\u6bb5", "amenity": "restaurant", "cuisine": "steak_house", "name": "\u7099\u71d2\u725b\u6392", "toilets:wheelchair": "no", "wheelchair": "limited"}}, {"type": "node", "id": 3012324261, "lat": 25.025437, "lon": 121.5416642, "tags": {"amenity": "restaurant", "name": "\u59d0\u59b9\u5c0f\u5403"}}, {"type": "node", "id": 3027219943, "lat": 25.0306475, "lon": 121.5294528, "tags": {"addr:city": "\u81fa\u5317\u5e02", "addr:country": "TW", "addr:district": "\u5927\u5b89\u5340", "addr:housenumber": "28-1", "addr:postcode": "106", "addr:street": "\u6c38\u5eb7\u8857", "amenity": "restaurant", "branch": "\u6c38\u5eb7\u5e97", "name": "\u597d\u516c\u9053\u7684\u5e97", "name:ja": "\u597d\u516c\u9053\u7684\u5e97", "old_name": "\u91d1\u96de\u5712", "opening_hours": "Th-Tu 09:00-21:00", "phone": "+886-2-2341-6980", "toilets:wheelchair": "no", "wheelchair": "no", "wheelchair:description": "\u5728\u4e8c\u6a13\u53ea\u6709\u6a13\u68af"}}, {"type": "node", "id": 3027219944, "lat": 25.0249669, "lon": 121.5450258, "tags": {"amenity": "restaurant", "brand": "\u516b\u65b9\u96f2\u96c6", "name": "\u516b\u65b9\u96f2\u96c6\u6c34\u9903\u5e97", "wheelchair": "limited"}}, {"type": "node", "id": 3033188232, "lat": 25.0240508, "lon": 121.5533052, "tags": {"addr:city": "\u81fa\u5317\u5e02", "addr:street": "\u548c\u5e73\u6771\u8def\u4e09\u6bb5", "amenity": "restaurant", "cuisine": "curry", "fax": "+886-2-2736-5559", "name": "\u4e00\u756a\u5496\u54e9\u5c08\u8ce3\u90e8\u5c4b", "phone": "+886-2-2736-5556"}}, {"type": "node", "id": 3050255125, "lat": 25.0442783, "lon": 121.5349106, "tags": {"amenity": "restaurant", "name": "\u5143\u5473\u4fbf\u7576/\u5feb\u9910"}}, {"type": "node", "id": 3053060098, "lat": 25.0388118, "lon": 121.5539515, "tags": {"addr:city": "\u81fa\u5317\u5e02", "addr:country": "TW", "addr:district": "\u5927\u5b89\u5340", "addr:full": "\u53f0\u5317\u5e02\u5927\u5b89\u5340\u4ec1\u611b\u8def\u56db\u6bb5345\u5df74\u5f042\u865f", "addr:housenumber": "2", "addr:postcode": "106", "addr:street": "\u4ec1\u611b\u8def\u56db\u6bb5345\u5df74\u5f04", "amenity": "restaurant", "cuisine": "korea", "name": "\u671d\u9bae\u5473", "phone": "+886-2-8773-9190"}}, {"type": "node", "id": 3064544543, "lat": 25.0145804, "lon": 121.5321115}, {"type": "node", "id": 3064980236, "lat": 25.0125895, "lon": 121.5337262}, {"type": "node", "id": 3064980237, "lat": 25.0126176, "lon": 121.533814}, {"type": "node", "id": 3064980238, "lat": 25.0126758, "lon": 121.5336926}, {"type": "node", "id": 3064980242, "lat": 25.0127039, "lon": 121.5337804}, {"type": "node", "id": 3065049728, "lat": 25.0143748, "lon": 121.5321376}, {"type": "node", "id": 3065049729, "lat": 25.0144737, "lon": 121.5322387}, {"type": "node", "id": 3065049730, "lat": 25.0144815, "lon": 121.5320104}, {"type": "node", "id": 3076221612, "lat": 25.0265884, "lon": 121.5418892, "tags": {"addr:city": "\u53f0\u5317\u5e02", "addr:country": "TW", "addr:district": "\u5927\u5b89\u5340", "addr:housenumber": "25", "addr:postcode": "106", "addr:street": "\u548c\u5e73\u6771\u8def\u4e8c\u6bb5175\u5df7", "amenity": "restaurant", "cuisine": "chinese", "name": "\u7d05\u724c\u725b\u8089\u9eb5", "opening_hours": "Mo-Sa 11:00-14:30, 17:00-20:30;Su off", "phone": "+886 2 2708 1772"}}, {"type": "node", "id": 3077524845, "lat": 25.0285632, "lon": 121.5414758, "tags": {"addr:city": "\u53f0\u5317\u5e02", "addr:country": "TW", "addr:district": "\u5927\u5b89\u5340", "addr:housenumber": "69", "addr:postcode": "106", "addr:street": "\u745e\u5b89\u8857", "amenity": "restaurant", "cuisine": "chinese", "name": "\u745e\u5b89\u8c46\u6f3f\u5927\u738b", "opening_hours": "24/7", "toilets:wheelchair": "no", "wheelchair": "yes", "wheelchair:description": "\u6709\u659c\u5761\u53ef\u4f9b\u8f2a\u6905\u4f7f\u7528\u8005\u4f7f\u7528\uff0c\u4f46\u5e97\u5167\u5ea7\u4f4d\u64c1\u64e0\u3002"}}, {"type": "node", "id": 3078276696, "lat": 25.0297961, "lon": 121.5432948, "tags": {"addr:city": "\u81fa\u5317\u5e02", "addr:country": "TW", "addr:district": "\u5927\u5b89\u5340", "addr:housenumber": "102", "addr:postcode": "106", "addr:street": "\u5fa9\u8208\u5357\u8def\u4e8c\u6bb5", "amenity": "restaurant", "name": "\u6c38\u548c\u8c46\u6f3f", "name:en": "yong he soy milk king", "name:zh": "\u6c38\u548c\u8c46\u6f3f", "toilets:wheelchair": "no", "wheelchair": "limited"}}, {"type": "node", "id": 3080436550, "lat": 25.0430492, "lon": 121.5421125, "tags": {"addr:city": "\u81fa\u5317\u5e02", "addr:country": "TW", "addr:district": "\u5927\u5b89\u5340", "addr:housenumber": "11", "addr:postcode": "106", "addr:street": "\u5fe0\u5b5d\u6771\u8def\u4e09\u6bb5251\u5df77\u5f04", "amenity": "restaurant", "name": "\u80d6\u5b50\u5c0f\u5403"}}, {"type": "node", "id": 3080933442, "lat": 25.0216304, "lon": 121.5427343, "tags": {"addr:city": "\u53f0\u5317\u5e02", "addr:country": "TW", "addr:district": "\u5927\u5b89\u5340", "addr:housenumber": "217", "addr:postcode": "106", "addr:street": "\u8f9b\u4ea5\u8def\u4e8c\u6bb5", "amenity": "restaurant", "name": "\u963f\u7389\u6c34\u9903", "name:en": "Ayu Dumpling", "name:zh": "\u963f\u7389\u6c34\u9903", "phone": "+886 2 2736 5875", "toilets:wheelchair": "no", "website": "https://a-yu.tw/", "wheelchair": "yes"}}, {"type": "node", "id": 3086736500, "lat": 25.0446958, "lon": 121.5446485, "tags": {"amenity": "restaurant", "name": "\u5ddd\u5df4\u5b50100\u71b1\u7092"}}, {"type": "node", "id": 3086736503, "lat": 25.0446051, "lon": 121.5537047, "tags": {"amenity": "restaurant", "cuisine": "japanese", "name": "\u5e02\u6c11\u5927\u9053\u6dae\u6dae\u934b"}}, {"type": "node", "id": 3104863145, "lat": 25.0423133, "lon": 121.5265024, "tags": {"addr:city": "\u53f0\u5317\u5e02", "addr:country": "TW", "addr:district": "\u4e2d\u6b63\u5340", "addr:housenumber": "23", "addr:postcode": "100", "addr:street": "\u676d\u5dde\u5357\u8def\u4e00\u6bb5", "amenity": "restaurant", "cuisine": "\u8907\u5408\u5f0f", "name": "\u96c6\u5ba2\u5929\u9577\u5730\u4e45\u4eba\u9593\u8336\u9928", "opening_hours": "11:00-22:00", "wheelchair": "no"}}, {"type": "node", "id": 3105610882, "lat": 25.038844, "lon": 121.5479529, "tags": {"amenity": "restaurant", "name": "\u597d\u7c73\u4e9e"}}, {"type": "node", "id": 3105611481, "lat": 25.0409839, "lon": 121.5497559, "tags": {"amenity": "restaurant", "name": "\u65e5\u5149\u5bd2\u820d\u5496\u5561\u6d0b\u98df\u9928"}}, {"type": "node", "id": 3113981811, "lat": 25.0366966, "lon": 121.5324193, "tags": {"amenity": "restaurant", "name": "\u81ea\u52a9\u9910"}}, {"type": "node", "id": 3113986361, "lat": 25.0348547, "lon": 121.5346433, "tags": {"addr:city": "\u81fa\u5317\u5e02", "addr:country": "TW", "addr:district": "\u5927\u5b89\u5340", "addr:housenumber": "9", "addr:postcode": "106", "addr:street": "\u4fe1\u7fa9\u8def\u4e09\u6bb531\u5df7", "amenity": "restaurant", "disused:amenity": "restaurant", "disused:name": "\u745e\u9e9f\u7f8e\u800c\u7f8e", "name": "\u96d9\u9023\u9b6f\u8089\u98ef"}}, {"type": "node", "id": 3136633714, "lat": 25.0405798, "lon": 121.5236873, "tags": {"amenity": "restaurant", "name": "\u8c93\u4e0b\u53bb"}}, {"type": "node", "id": 3151325175, "lat": 25.0151279, "lon": 121.5326187, "tags": {"addr:city": "\u81fa\u5317\u5e02", "addr:country": "TW", "addr:district": "\u4e2d\u6b63\u5340", "addr:housenumber": "11", "addr:postcode": "100", "addr:street": "\u7f85\u65af\u798f\u8def\u56db\u6bb524\u5df7", "amenity": "restaurant", "name": "\u7fe0\u85aa\u8d8a\u5357\u9910\u5ef3", "phone": "+886 2 2368 0254", "toilets:wheelchair": "yes", "wheelchair": "limited"}}, {"type": "node", "id": 3151325177, "lat": 25.0151561, "lon": 121.5326854, "tags": {"addr:city": "\u81fa\u5317\u5e02", "addr:country": "TW", "addr:district": "\u4e2d\u6b63\u5340", "addr:housenumber": "11\u4e4b1", "addr:postcode": "100", "addr:street": "\u7f85\u65af\u798f\u8def\u56db\u6bb524\u5df7", "amenity": "restaurant", "cuisine": "dumpling", "name": "\u5c71\u6771\u5927\u9903\u5b50\u9928", "toilets:wheelchair": "no", "wheelchair": "no"}}, {"type": "node", "id": 3151325299, "lat": 25.0150493, "lon": 121.5325276, "tags": {"addr:city": "\u81fa\u5317\u5e02", "addr:country": "TW", "addr:district": "\u4e2d\u6b63\u5340", "addr:full": "\u81fa\u5317\u5e02\u4e2d\u6b63\u5340\u7f85\u65af\u798f\u8def\u56db\u6bb524\u5df713\u865f", "addr:housenumber": "13", "addr:postcode": "100", "addr:street": "\u7f85\u65af\u798f\u8def\u56db\u6bb524\u5df7", "amenity": "restaurant", "name": "\u767c\u798f\u5eda\u623f\u516c\u9928\u5e97", "opening_hours": "Mo-Fr 11:30-22:00; Sa,Su 11:00-22:00", "phone": "+886-2-29346088", "toilets:wheelchair": "no", "wheelchair": "yes"}},